city,lat,lng,country,iso2
Tokyo,35.6897,139.6922,Japan,JP
Jakarta,-6.2146,106.8451,Indonesia,ID
Delhi,28.66,77.23,India,IN
Mumbai,18.9667,72.8333,India,IN
Manila,14.6,120.9833,Philippines,PH
Shanghai,31.1667,121.4667,China,CN
São Paulo,-23.5504,-46.6339,Brazil,BR
Seoul,37.56,126.99,"Korea, South",KR
Mexico City,19.4333,-99.1333,Mexico,MX
Guangzhou,23.1288,113.259,China,CN
Beijing,39.905,116.3914,China,CN
Cairo,30.0561,31.2394,Egypt,EG
New York,40.6943,-73.9249,United States,US
Kolkāta,22.5411,88.3378,India,IN
Moscow,55.7558,37.6178,Russia,RU
Bangkok,13.75,100.5167,Thailand,TH
Buenos Aires,-34.5997,-58.3819,Argentina,AR
Shenzhen,22.535,114.054,China,CN
Dhaka,23.7289,90.3944,Bangladesh,BD
Lagos,6.45,3.4,Nigeria,NG
Istanbul,41.01,28.9603,Turkey,TR
Ōsaka,34.75,135.4601,Japan,JP
Karachi,24.86,67.01,Pakistan,PK
Bangalore,12.9699,77.598,India,IN
Tehran,35.7,51.4167,Iran,IR
Kinshasa,-4.3233,15.3081,Congo (Kinshasa),CD
Ho Chi Minh City,10.8167,106.6333,Vietnam,VN
Los Angeles,34.1139,-118.4068,United States,US
Rio de Janeiro,-22.9083,-43.1964,Brazil,BR
Nanyang,32.9987,112.5292,China,CN
Baoding,38.8671,115.4845,China,CN
Chennai,13.0825,80.275,India,IN
Chengdu,30.66,104.0633,China,CN
Lahore,31.5497,74.3436,Pakistan,PK
Paris,48.8566,2.3522,France,FR
London,51.5072,-0.1275,United Kingdom,GB
Linyi,35.0606,118.3425,China,CN
Tianjin,39.1467,117.2056,China,CN
Shijiazhuang,38.0422,114.5086,China,CN
Zhoukou,33.625,114.6418,China,CN
Lima,-12.05,-77.0333,Peru,PE
Hyderābād,17.3667,78.4667,India,IN
Handan,36.6116,114.4894,China,CN
Bogotá,4.6126,-74.0705,Colombia,CO
Weifang,36.7167,119.1,China,CN
Nagoya,35.1167,136.9333,Japan,JP
Wuhan,30.5872,114.2881,China,CN
Heze,35.2333,115.4333,China,CN
Ganzhou,25.8292,114.9336,China,CN
Tongshan,34.261,117.1859,China,CN
Chicago,41.8373,-87.6862,United States,US
Luanda,-8.8383,13.2344,Angola,AO
Changsha,28.1987,112.9709,China,CN
Fuyang,32.8986,115.8045,China,CN
Kuala Lumpur,3.1478,101.6953,Malaysia,MY
Jining,35.4,116.5667,China,CN
Dongguan,23.0475,113.7493,China,CN
Jinan,36.6667,116.9833,China,CN
Foshan,23.0292,113.1056,China,CN
Hanoi,21.0245,105.8412,Vietnam,VN
Pune,18.5196,73.8553,India,IN
Chongqing,29.5628,106.5528,China,CN
Changchun,43.9,125.2,China,CN
Zhumadian,32.9773,114.0253,China,CN
Ningbo,29.875,121.5492,China,CN
Cangzhou,38.3037,116.8452,China,CN
Nanjing,32.05,118.7667,China,CN
Hefei,31.8639,117.2808,China,CN
Ahmedabad,23.03,72.58,India,IN
Hong Kong,22.305,114.185,Hong Kong,HK
Zhanjiang,21.1967,110.4031,China,CN
Shaoyang,27.2418,111.4725,China,CN
Hengyang,26.8968,112.5857,China,CN
Khartoum,15.6031,32.5265,Sudan,SD
Nantong,31.9829,120.8873,China,CN
Yancheng,33.3936,120.1339,China,CN
Nanning,22.8192,108.315,China,CN
Xi’an,34.2667,108.9,China,CN
Shenyang,41.8039,123.4258,China,CN
Tangshan,39.6292,118.1742,China,CN
Santiago,-33.45,-70.6667,Chile,CL
Zhengzhou,34.7492,113.6605,China,CN
Shangqiu,34.4259,115.6467,China,CN
Yantai,37.3997,121.2664,China,CN
Riyadh,24.65,46.71,Saudi Arabia,SA
Dar es Salaam,-6.8,39.2833,Tanzania,TZ
Xinyang,32.1264,114.0672,China,CN
Shangrao,28.4419,117.9633,China,CN
Luoyang,34.6587,112.4245,China,CN
Bijie,27.3019,105.2863,China,CN
Quanzhou,24.9139,118.5858,China,CN
Hangzhou,30.25,120.1675,China,CN
Miami,25.7839,-80.2102,United States,US
Huanggang,30.45,114.875,China,CN
Maoming,21.6618,110.9178,China,CN
Kunming,25.0433,102.7061,China,CN
Nanchong,30.7991,106.0784,China,CN
Zunyi,27.705,106.9336,China,CN
Jieyang,23.5533,116.3649,China,CN
Lu’an,31.7542,116.5078,China,CN
Yichun,27.8041,114.383,China,CN
Madrid,40.4167,-3.7167,Spain,ES
Changde,29.0397,111.6839,China,CN
Taizhou,28.6583,121.4221,China,CN
Liaocheng,36.45,115.9833,China,CN
Qujing,25.5102,103.8029,China,CN
Sūrat,21.17,72.83,India,IN
Baghdad,33.35,44.4167,Iraq,IQ
Qingdao,36.1167,120.4,China,CN
Singapore,1.3,103.8,Singapore,SG
Dallas,32.7936,-96.7662,United States,US
Dazhou,31.2152,107.4947,China,CN
Suzhou,33.6333,116.9683,China,CN
Xiangyang,32.0654,112.1531,China,CN
Philadelphia,40.0077,-75.1339,United States,US
Giza,29.987,31.2118,Egypt,EG
Nairobi,-1.2864,36.8172,Kenya,KE
Nangandao,35.2992,113.8851,China,CN
Ankara,39.93,32.85,Turkey,TR
Tai’an,36.2001,117.0809,China,CN
Yulin,22.6293,110.1507,China,CN
Dezhou,37.4513,116.3105,China,CN
Houston,29.7863,-95.3889,United States,US
Atlanta,33.7627,-84.4224,United States,US
Yongzhou,26.4515,111.5953,China,CN
Rangoon,16.8,96.15,Myanmar,MM
Toronto,43.7417,-79.3733,Canada,CA
Suihua,46.6384,126.9808,China,CN
Washington,38.9047,-77.0163,United States,US
Qiqihar,47.3398,123.9512,China,CN
Jinhua,29.1046,119.6494,China,CN
Saint Petersburg,59.95,30.3167,Russia,RU
Shantou,23.3735,116.6941,China,CN
Sydney,-33.865,151.2094,Australia,AU
Weinan,34.4996,109.4684,China,CN
Suqian,33.9331,118.2831,China,CN
Guadalajara,20.6767,-103.3475,Mexico,MX
Suzhou,31.304,120.6164,China,CN
Fuzhou,26.0769,119.2917,China,CN
Zhaotong,27.3328,103.7144,China,CN
Pudong,31.2231,121.5397,China,CN
Belo Horizonte,-19.9281,-43.9419,Brazil,BR
Zhangzhou,24.5093,117.6612,China,CN
Bozhou,33.8626,115.7742,China,CN
Melbourne,-37.8136,144.9631,Australia,AU
Nanchang,28.6842,115.8872,China,CN
Xianyang,34.35,108.7167,China,CN
Taizhou,32.4831,119.9,China,CN
Surabaya,-7.2458,112.7378,Indonesia,ID
Abidjan,5.3364,-4.0267,Côte D’Ivoire,CI
Huaihua,27.5494,109.9592,China,CN
Ji’an,27.1172,114.9793,China,CN
Mianyang,31.4669,104.7385,China,CN
Xiaoganzhan,30.9273,113.911,China,CN
Shaoxing,30,120.5833,China,CN
Alexandria,31.2,29.9167,Egypt,EG
Yuncheng,35.0304,110.998,China,CN
Pingdingshan,33.735,113.2999,China,CN
Huizhou,23.1115,114.4152,China,CN
Huai’an,33.5,119.1331,China,CN
Xinpu,34.5906,119.1801,China,CN
Chenzhou,25.7989,113.0267,China,CN
Guilin,25.2667,110.2833,China,CN
Jiujiang,29.7048,116.0021,China,CN
Anqing,30.5,117.0333,China,CN
Boston,42.3188,-71.0846,United States,US
Huanglongsi,34.7936,114.3403,China,CN
Jiangmen,22.5833,113.0833,China,CN
Changzhou,31.8122,119.9692,China,CN
Barcelona,41.3825,2.1769,Spain,ES
Wuxi,31.5667,120.2833,China,CN
Zibo,36.7831,118.0497,China,CN
Jiaxing,30.7522,120.75,China,CN
Dalian,38.9,121.6,China,CN
Hengshui,37.7348,115.686,China,CN
Harbin,45.75,126.6333,China,CN
Yangzhou,32.3912,119.4363,China,CN
Yibin,28.7596,104.64,China,CN
Johannesburg,-26.2044,28.0416,South Africa,ZA
Yiyang,28.5833,112.3333,China,CN
Meizhou,24.2998,116.1191,China,CN
Chifeng,42.2663,118.9223,China,CN
Casablanca,33.5992,-7.62,Morocco,MA
Guiyang,26.5794,106.7078,China,CN
Langfang,39.5196,116.7006,China,CN
Zhangjiakou,40.8108,114.8811,China,CN
İzmir,38.4127,27.1384,Turkey,TR
Linfen,36.0812,111.5087,China,CN
Wenzhou,27.9991,120.6561,China,CN
Monterrey,25.6667,-100.3,Mexico,MX
Luzhou,28.8918,105.4409,China,CN
Jiangguanchi,34.0244,113.8201,China,CN
Neijiang,29.5872,105.0635,China,CN
Phoenix,33.5722,-112.0891,United States,US
Yanjiang,30.1256,104.6397,China,CN
Zhaoqing,23.05,112.4667,China,CN
Xiaoxita,30.7083,111.2803,China,CN
Guigang,23.0961,109.6092,China,CN
Xiamen,24.4797,118.0819,China,CN
Chuzhou,32.3062,118.3115,China,CN
Fuzhou,27.9814,116.3577,China,CN
Zhuzhou,27.8407,113.1469,China,CN
Amman,31.95,35.9333,Jordan,JO
Jeddah,21.5428,39.1728,Saudi Arabia,SA
Loudi,27.7378,111.9974,China,CN
Deyang,31.1289,104.395,China,CN
Qingyuan,23.6842,113.0507,China,CN
Wuhu,31.334,118.3622,China,CN
Hechi,23.0965,109.6091,China,CN
Seattle,47.6211,-122.3244,United States,US
Binzhou,37.3806,118.0125,China,CN
Yokohama,35.4333,139.6333,Japan,JP
Liuzhou,24.3264,109.4281,China,CN
Baojishi,34.3609,107.1751,China,CN
Guang’an,30.4673,106.6336,China,CN
Hanzhong,33.0794,107.026,China,CN
Kabul,34.5328,69.1658,Afghanistan,AF
Zaozhuang,34.8667,117.55,China,CN
Berlin,52.5167,13.3833,Germany,DE
Anshan,41.1066,122.9895,China,CN
Lanzhou,36.0617,103.8318,China,CN
Chengde,40.9739,117.9322,China,CN
San Francisco,37.7562,-122.443,United States,US
Puyang,35.7639,115.03,China,CN
Suining,30.5098,105.5737,China,CN
Jiaozuo,35.229,113.2304,China,CN
Bengbu,32.9354,117.3531,China,CN
Montréal,45.5089,-73.5617,Canada,CA
Detroit,42.3834,-83.1024,United States,US
Baicheng,23.901,106.6194,China,CN
Busan,35.1,129.0403,"Korea, South",KR
Algiers,36.7764,3.0586,Algeria,DZ
Qincheng,34.5809,105.7311,China,CN
Taiyuan,37.8733,112.5425,China,CN
Shiyan,32.6351,110.7755,China,CN
Lucknow,26.847,80.947,India,IN
Chaoyang,41.5757,120.4486,China,CN
Hechi,24.6928,108.085,China,CN
Leshan,29.5854,103.7575,China,CN
Yulinshi,38.2655,109.7388,China,CN
Siping,43.1715,124.3644,China,CN
Zhongshan,22.5333,113.35,China,CN
Changzhi,36.1953,113.097,China,CN
San Diego,32.8312,-117.1225,United States,US
Faisalabad,31.418,73.079,Pakistan,PK
Santa Cruz,-17.7892,-63.1975,Bolivia,BO
Qinhuangdao,39.9398,119.5881,China,CN
Bazhou,31.8576,106.7559,China,CN
Zhenjiang,32.2109,119.4551,China,CN
Ürümqi,43.8225,87.6125,China,CN
Tongliao,43.6172,122.264,China,CN
Heyuan,23.7503,114.6923,China,CN
Tongren,27.7233,109.1885,China,CN
Qinzhou,21.95,108.6167,China,CN
Jaipur,26.9167,75.8667,India,IN
Xinzhou,38.4178,112.7233,China,CN
Addis Ababa,9.0272,38.7369,Ethiopia,ET
Meishan,30.0575,103.8381,China,CN
Brasília,-15.7939,-47.8828,Brazil,BR
Mashhad,36.3069,59.6042,Iran,IR
Jinzhou,41.1144,121.1292,China,CN
Tieling,42.2841,123.8365,China,CN
Shaoguan,24.8011,113.5927,China,CN
Kuwait City,29.375,47.98,Kuwait,KW
Shanwei,22.7664,115.3331,China,CN
Minneapolis,44.9635,-93.2678,United States,US
Kyiv,50.45,30.5236,Ukraine,UA
Sanaa,15.35,44.2,Yemen,YE
Quezon City,14.6333,121.0333,Philippines,PH
Dingxi,35.5806,104.6263,China,CN
Incheon,37.4639,126.6486,"Korea, South",KR
Bursa,40.1833,29.0667,Turkey,TR
Ningde,26.6667,119.5167,China,CN
Tampa,27.9942,-82.4451,United States,US
Daqing,46.5979,125.008,China,CN
Birmingham,52.48,-1.9025,United Kingdom,GB
Putian,25.4394,119.0103,China,CN
Huzhou,30.8695,120.0958,China,CN
Salvador,-12.9708,-38.5108,Brazil,BR
Wuzhou,23.4833,111.3167,China,CN
Xiangtan,27.8431,112.9228,China,CN
Denver,39.7621,-104.8759,United States,US
Rome,41.8931,12.4828,Italy,IT
La Paz,-16.4942,-68.1475,Bolivia,BO
Pyongyang,39.03,125.73,"Korea, North",KP
Kano,12,8.5167,Nigeria,NG
Taichung,24.15,120.6667,Taiwan,TW
Omdurman,15.6835,32.4629,Sudan,SD
Zigong,29.3498,104.7645,China,CN
Mudanjiang,44.5861,129.5997,China,CN
Huludao,40.7094,120.8378,China,CN
Kaohsiung,22.6167,120.3,Taiwan,TW
Guayaquil,-2.1833,-79.8833,Ecuador,EC
Rizhao,35.4164,119.4331,China,CN
Manchester,53.4794,-2.2453,United Kingdom,GB
Cawnpore,26.4725,80.3311,India,IN
Baotou,40.6562,109.8345,China,CN
Taipei,25.0478,121.5319,Taiwan,TW
Nanping,26.6448,118.1728,China,CN
Chaozhou,23.67,116.63,China,CN
Longyan,25.0881,117.0244,China,CN
Ibadan,7.3964,3.9167,Nigeria,NG
Hohhot,40.8151,111.6629,China,CN
Antananarivo,-18.9386,47.5214,Madagascar,MG
Longba,33.535,105.349,China,CN
Weihai,37.5,122.1,China,CN
Chattogram,22.335,91.8325,Bangladesh,BD
Santo Domingo,18.4764,-69.8933,Dominican Republic,DO
Xuanzhou,30.9475,118.7518,China,CN
Sanming,26.2658,117.6302,China,CN
Brooklyn,40.6501,-73.9496,United States,US
Yangjiang,21.8556,111.9627,China,CN
Medellín,6.2447,-75.5748,Colombia,CO
Yunfu,22.9242,112.0353,China,CN
Brisbane,-27.4678,153.0281,Australia,AU
Baoshan,25.1211,99.169,China,CN
Dubai,25.2697,55.3094,United Arab Emirates,AE
Luohe,33.583,114.0109,China,CN
Qinbaling,35.7278,107.64,China,CN
Mirzāpur,25.15,82.58,India,IN
Guangyuan,32.4353,105.8398,China,CN
Cali,3.44,-76.5197,Colombia,CO
Huangshi,30.2018,115.0326,China,CN
Daegu,35.8667,128.6,"Korea, South",KR
Fortaleza,-3.7275,-38.5275,Brazil,BR
Guatemala City,14.6099,-90.5252,Guatemala,GT
Yaoundé,3.8578,11.5181,Cameroon,CM
Douala,4.05,9.7,Cameroon,CM
Jilin,43.85,126.55,China,CN
Lianshan,40.7503,120.83,China,CN
Lincang,23.8864,100.0871,China,CN
Antalya,36.9081,30.6956,Turkey,TR
Tashkent,41.3,69.2667,Uzbekistan,UZ
Bandung,-6.95,107.5667,Indonesia,ID
Nāgpur,21.1539,79.0831,India,IN
Huainan,32.4831,117.0164,China,CN
Dandong,40.1167,124.3833,China,CN
Shangzhou,33.868,109.9244,China,CN
Bekasi,-6.2333,107,Indonesia,ID
Ghāziābād,28.6667,77.4167,India,IN
Tijuana,32.525,-117.0333,Mexico,MX
Jiamusi,46.8081,130.3653,China,CN
Accra,5.6037,-0.187,Ghana,GH
Yuxi,24.3495,102.5432,China,CN
Anshun,26.2456,105.934,China,CN
Vancouver,49.25,-123.1,Canada,CA
Tangerang,-6.1783,106.6319,Indonesia,ID
Konya,37.8714,32.4847,Turkey,TR
Queens,40.7498,-73.7976,United States,US
Yingkou,40.6653,122.2297,China,CN
Adana,37,35.325,Turkey,TR
Medan,3.6667,98.6667,Indonesia,ID
Sanmenxia,34.7736,111.195,China,CN
Indore,22.7206,75.8472,India,IN
Ma’anshan,31.7135,118.3605,China,CN
Pingliang,35.5412,106.6819,China,CN
Quzhou,28.9545,118.8763,China,CN
Baku,40.3667,49.8352,Azerbaijan,AZ
Gaoping,30.7804,106.13,China,CN
Huaibei,33.9562,116.789,China,CN
Xining,36.6239,101.7787,China,CN
Harare,-17.8292,31.0522,Zimbabwe,ZW
Yan’an,36.5952,109.4863,China,CN
Havana,23.1367,-82.3589,Cuba,CU
Phnom Penh,11.5696,104.921,Cambodia,KH
Fukuoka,33.6,130.4167,Japan,JP
Mogadishu,2.0408,45.3425,Somalia,SO
Jincheng,35.4906,112.8483,China,CN
Puning,23.2993,116.1586,China,CN
Lishui,28.45,119.9167,China,CN
Qingyang,24.8141,118.5792,China,CN
Riverside,33.9381,-117.3948,United States,US
Baltimore,39.3051,-76.6144,United States,US
Haiphong,20.8,106.6667,Vietnam,VN
Las Vegas,36.2333,-115.2654,United States,US
Laibin,23.7333,109.2333,China,CN
Rawalpindi,33.6007,73.0679,Pakistan,PK
Kumasi,6.6833,-1.6167,Ghana,GH
Portland,45.5372,-122.65,United States,US
Vadodara,22.3,73.2,India,IN
Perth,-31.9522,115.8589,Australia,AU
San Antonio,29.4658,-98.5253,United States,US
Vishākhapatnam,17.7333,83.3167,India,IN
Gujranwala,32.15,74.1833,Pakistan,PK
Gaziantep,37.0667,37.3833,Turkey,TR
Fushun,41.8708,123.8917,China,CN
St. Louis,38.6358,-90.2451,United States,US
Bamako,12.6458,-7.9922,Mali,ML
Quito,-0.2186,-78.5097,Ecuador,EC
Minsk,53.9022,27.5618,Belarus,BY
Pingxiang,27.6333,113.85,China,CN
Chongzuo,22.4167,107.3667,China,CN
Şanlıurfa,37.1583,38.7917,Turkey,TR
Kananga,-5.897,22.4488,Congo (Kinshasa),CD
Peshawar,34,71.5,Pakistan,PK
Sapporo,43.0621,141.3544,Japan,JP
Hezhou,24.4164,111.5478,China,CN
Jixi,45.2937,130.965,China,CN
Caracas,10.5,-66.9333,Venezuela,VE
Fuxin,42.0127,121.6486,China,CN
Aleppo,36.2,37.15,Syria,SY
Almaty,43.25,76.9,Kazakhstan,KZ
Dayr az Zawr,35.3333,40.15,Syria,SY
Vienna,48.2083,16.3731,Austria,AT
Leeds,53.7997,-1.5492,United Kingdom,GB
Sacramento,38.5667,-121.4683,United States,US
Blantyre,-15.7861,35.0058,Malawi,MW
Tainan,22.9833,120.1833,Taiwan,TW
Zhuhai,22.2769,113.5678,China,CN
Bucharest,44.4,26.0833,Romania,RO
Wuwei,37.9278,102.6329,China,CN
Bhopāl,23.25,77.4167,India,IN
Curitiba,-25.4297,-49.2719,Brazil,BR
Multan,30.1978,71.4711,Pakistan,PK
Xiping,40.08,113.3,China,CN
Asunción,-25.3,-57.6333,Paraguay,PY
Saidu Sharif,34.75,72.3572,Pakistan,PK
Hamburg,53.55,10,Germany,DE
Meru,0.05,37.65,Kenya,KE
Brazzaville,-4.2667,15.2833,Congo (Brazzaville),CG
Orlando,28.4772,-81.3369,United States,US
Mersin,36.8,34.6167,Turkey,TR
Kyōto,35.0111,135.7669,Japan,JP
Manaus,-3.1,-60.0167,Brazil,BR
Liaoyang,41.2643,123.1772,China,CN
Baiyin,36.5448,104.1766,China,CN
San Jose,37.3019,-121.8486,United States,US
Warsaw,52.2167,21.0333,Poland,PL
Shengli,37.45,118.4667,China,CN
Lubumbashi,-11.6697,27.4581,Congo (Kinshasa),CD
Haikou,20.02,110.32,China,CN
Damascus,33.5131,36.2919,Syria,SY
Shuyangzha,34.1299,118.7734,China,CN
Brussels,50.8333,4.3333,Belgium,BE
Eşfahān,32.6447,51.6675,Iran,IR
Budapest,47.4983,19.0408,Hungary,HU
Heihe,50.2458,127.4886,China,CN
Lusaka,-15.4167,28.2833,Zambia,ZM
Hyderabad City,25.3792,68.3683,Pakistan,PK
Diyarbakır,37.9108,40.2367,Turkey,TR
Chinchvad,18.6278,73.8131,India,IN
Shuozhou,39.3408,112.4292,China,CN
Cleveland,41.4767,-81.6804,United States,US
Pittsburgh,40.4396,-79.9762,United States,US
Patna,25.61,85.1414,India,IN
Mosul,36.3667,43.1167,Iraq,IQ
Austin,30.3004,-97.7522,United States,US
Sanzhou,30.82,108.4,China,CN
Mecca,21.4225,39.8261,Saudi Arabia,SA
Conakry,9.5092,-13.7122,Guinea,GN
Kampala,0.3136,32.5811,Uganda,UG
Ecatepec,19.6097,-99.06,Mexico,MX
Cincinnati,39.1413,-84.5061,United States,US
Makassar,-5.1331,119.4136,Indonesia,ID
Yushan,31.3867,120.9766,China,CN
Ludhiāna,30.9083,75.8486,India,IN
Newcastle,55.0077,-1.6578,United Kingdom,GB
Depok,-6.394,106.8225,Indonesia,ID
Zhongli,24.965,121.2168,Taiwan,TW
Kansas City,39.1239,-94.5541,United States,US
Ouagadougou,12.3572,-1.5353,Burkina Faso,BF
Davao,7.0667,125.6,Philippines,PH
Manhattan,40.7834,-73.9662,United States,US
Semarang,-6.9667,110.4167,Indonesia,ID
Yinchuan,38.4795,106.2254,China,CN
Caloocan City,14.65,120.9667,Philippines,PH
Novosibirsk,55.0333,82.9167,Russia,RU
Chengtangcun,35.0833,117.15,China,CN
Āgra,27.18,78.02,India,IN
Karaj,35.8327,50.9915,Iran,IR
Indianapolis,39.7771,-86.1458,United States,US
Jingdezhen,29.2942,117.2036,China,CN
Puebla,19.0333,-98.1833,Mexico,MX
Kalyān,19.2502,73.1602,India,IN
Madurai,9.9197,78.1194,India,IN
Benxi,41.292,123.761,China,CN
Jamshedpur,22.8,86.1833,India,IN
Recife,-8.0539,-34.8808,Brazil,BR
Columbus,39.9862,-82.985,United States,US
Tabrīz,38.0833,46.2833,Iran,IR
Maracaibo,10.6333,-71.6333,Venezuela,VE
Zhangjiajie,29.1255,110.4844,China,CN
Beihai,21.4667,109.1,China,CN
Shuangyashan,46.6388,131.1545,China,CN
Kōbe,34.6913,135.183,Japan,JP
Charlotte,35.208,-80.8304,United States,US
Yucheng,29.9888,103.0007,China,CN
Changshu,31.65,120.7333,China,CN
Lianjiang,21.6146,110.2794,China,CN
Ximeicun,24.9633,118.3811,China,CN
Jianguang,28.1958,115.7833,China,CN
Madīnat as Sādis min Uktūbar,29.9361,30.9269,Egypt,EG
Xushan,30.1697,121.2665,China,CN
Belém,-1.4558,-48.5039,Brazil,BR
Guiping,23.4,110.0833,China,CN
Leizhou,20.9147,110.0806,China,CN
Gwangju,35.1667,126.9167,"Korea, South",KR
Nāsik,20,73.7833,India,IN
Porto Alegre,-30.0328,-51.23,Brazil,BR
Valencia,10.1667,-68,Venezuela,VE
Onitsha,6.1667,6.7833,Nigeria,NG
Virginia Beach,36.7335,-76.0435,United States,US
Daejeon,36.351,127.385,"Korea, South",KR
Munich,48.1372,11.5755,Germany,DE
Auckland,-36.85,174.7833,New Zealand,NZ
Yekaterinburg,56.8356,60.6128,Russia,RU
Huangshan,29.7132,118.3151,China,CN
Huazhou,32.6889,112.0447,China,CN
Shīrāz,29.61,52.5425,Iran,IR
Pizhou,34.3422,118.0097,China,CN
Palembang,-2.9833,104.7644,Indonesia,ID
León de los Aldama,21.1167,-101.6833,Mexico,MX
El Kelaa des Srarhna,32.05,-7.4,Morocco,MA
Kharkiv,50,36.2292,Ukraine,UA
Kawanakajima,35.53,139.705,Japan,JP
Yangshe,31.8775,120.5512,China,CN
Chizhou,30.6583,117.4849,China,CN
Guyuan,36.008,106.2782,China,CN
Rui’an,27.778,120.6526,China,CN
Birstall,52.6736,-1.12,United Kingdom,GB
Muscat,23.6139,58.5922,Oman,OM
Hebi,35.7497,114.2887,China,CN
Bronx,40.8501,-73.8662,United States,US
Gaozhou,21.9135,110.8481,China,CN
The Hague,52.0767,4.2986,Netherlands,NL
Owerri,5.4833,7.0333,Nigeria,NG
Sharjah,25.3575,55.3919,United Arab Emirates,AE
Farīdābād,28.4333,77.3167,India,IN
Ulaanbaatar,47.9203,106.9172,Mongolia,MN
Goiânia,-16.6806,-49.2564,Brazil,BR
Kayseri,38.7333,35.4833,Turkey,TR
Yueqing,28.1188,120.9621,China,CN
Belgrade,44.8167,20.4667,Serbia,RS
Pingdu,36.7833,119.9556,China,CN
Milan,45.4669,9.19,Italy,IT
Aurangābād,19.88,75.32,India,IN
Yutan,28.3147,112.554,China,CN
Wenling,28.3797,121.3718,China,CN
Milwaukee,43.0642,-87.9673,United States,US
Sofia,42.6979,23.3217,Bulgaria,BG
Adelaide,-34.9289,138.6011,Australia,AU
Prague,50.0833,14.4167,Czechia,CZ
Samsun,41.2867,36.33,Turkey,TR
Rājkot,22.2969,70.7984,India,IN
Liangshi,27.2578,111.7351,China,CN
Khulna,22.8167,89.55,Bangladesh,BD
Córdoba,-31.4167,-64.1833,Argentina,AR
Guarulhos,-23.4667,-46.5333,Brazil,BR
Juárez,31.7386,-106.487,Mexico,MX
Saitama,35.8617,139.6453,Japan,JP
Montevideo,-34.8667,-56.1667,Uruguay,UY
Mbuji-Mayi,-6.1209,23.5967,Congo (Kinshasa),CD
Fuqing,25.7232,119.3735,China,CN
Xintai,35.91,117.78,China,CN
Doha,25.3,51.5333,Qatar,QA
Hiroshima,34.4,132.45,Japan,JP
Meerut,28.99,77.7,India,IN
Yushu,44.8249,126.5451,China,CN
Rongcheng,26.2312,104.0966,China,CN
Huazhou,21.654,110.6294,China,CN
Yangquan,37.8576,113.5762,China,CN
Haicheng,40.8523,122.7474,China,CN
Yingtan,28.2333,117,China,CN
Huaiyin,33.58,119.03,China,CN
Wuzhong,37.9874,106.1919,China,CN
Barranquilla,10.9639,-74.7964,Colombia,CO
Jabalpur,23.1667,79.9333,India,IN
Thāne,19.18,72.9633,India,IN
Zhangye,38.9355,100.4553,China,CN
Rucheng,32.3852,120.5634,China,CN
Nizhniy Novgorod,56.3269,44.0075,Russia,RU
Comayagüela,14.0833,-87.2167,Honduras,HN
Shaoyang,32.9387,119.8404,China,CN
Dhanbād,23.7928,86.435,India,IN
Yichun,47.7235,128.8893,China,CN
Laiwu,36.1833,117.6667,China,CN
Jingling,30.6667,113.1667,China,CN
Kazan,55.7908,49.1144,Russia,RU
Dayan,26.8808,100.2208,China,CN
Suwon,37.2858,127.01,"Korea, South",KR
Jiangyin,31.9087,120.2653,China,CN
Yongcheng,33.9317,116.4459,China,CN
Calgary,51.05,-114.0667,Canada,CA
Cần Thơ,10.0333,105.7833,Vietnam,VN
Abuja,9.0556,7.4914,Nigeria,NG
Yiwu,29.3081,120.0698,China,CN
Mandalay,21.9769,96.0869,Myanmar,MM
Beidao,34.6,105.92,China,CN
Al Başrah,30.4889,47.81,Iraq,IQ
Shuangshui,26.5944,104.8333,China,CN
Vila Velha,3.2167,-51.2167,Brazil,BR
Allahābād,25.455,81.84,India,IN
Vārānasi,25.3189,83.0128,India,IN
Chelyabinsk,55.15,61.4,Russia,RU
Mombasa,-4.05,39.6667,Kenya,KE
Providence,41.823,-71.4187,United States,US
Qom,34.6461,50.8789,Iran,IR
Maiduguri,11.8333,13.15,Nigeria,NG
Maputo,-25.9153,32.5764,Mozambique,MZ
Rosario,-32.9575,-60.6394,Argentina,AR
Benin City,6.3176,5.6145,Nigeria,NG
Xinyu,27.795,114.9242,China,CN
Pikine,14.75,-17.4,Senegal,SN
Ahvāz,31.3203,48.6692,Iran,IR
Dublin,53.3497,-6.2603,Ireland,IE
Jacksonville,30.3322,-81.6749,United States,US
Medina,24.4667,39.6,Saudi Arabia,SA
Srīnagar,34.0911,74.8061,India,IN
Omsk,54.9667,73.3833,Russia,RU
Cilacap,-7.7167,109.017,Indonesia,ID
Bandar Lampung,-5.4294,105.2625,Indonesia,ID
Samara,53.1833,50.1167,Russia,RU
Guankou,28.1417,113.625,China,CN
Ulsan,35.55,129.3167,"Korea, South",KR
Dingzhou,38.5158,114.9845,China,CN
Campinas,-22.9009,-47.0573,Brazil,BR
Lianyuan,27.6961,111.6659,China,CN
Rongcheng,29.8239,112.9019,China,CN
Kaiyuan,36.0656,113.8153,China,CN
Nay Pyi Taw,19.7475,96.115,Myanmar,MM
Dakar,14.7319,-17.4572,Senegal,SN
Zhuji,29.7169,120.2314,China,CN
Kigali,-1.9536,30.0606,Rwanda,RW
Zapopan,20.7167,-103.4,Mexico,MX
Leiyang,26.4179,112.8457,China,CN
Santiago,19.45,-70.7,Dominican Republic,DO
Dadukou,26.5849,101.7149,China,CN
Xiantao,30.3833,113.4,China,CN
Amritsar,31.6167,74.85,India,IN
Callao,-12.0611,-77.1333,Peru,PE
Alīgarh,27.88,78.08,India,IN
Yingchuan,34.1511,113.4733,China,CN
Tegucigalpa,14.0942,-87.2067,Honduras,HN
Ciudad Nezahualcóyotl,19.41,-99.03,Mexico,MX
Tripoli,32.8752,13.1875,Libya,LY
Rostov,47.2333,39.7167,Russia,RU
Nezahualcóyotl,19.4,-98.9889,Mexico,MX
Bhiwandi,19.3,73.0667,India,IN
Zhoushan,30.0162,122.0988,China,CN
Tbilisi,41.7225,44.7925,Georgia,GE
Ufa,54.7333,55.9667,Russia,RU
Fès,34.0433,-5.0033,Morocco,MA
Sevilla,37.39,-5.99,Spain,ES
Mexicali,32.6633,-115.4678,Mexico,MX
Biên Hòa,10.9277,106.8681,Vietnam,VN
Gwalior,26.215,78.1931,India,IN
Ankang,32.6877,109.0235,China,CN
Ikare,7.5304,5.76,Nigeria,NG
Huambo,-12.7667,15.7333,Angola,AO
Hegang,47.3139,130.2775,China,CN
Salt Lake City,40.7777,-111.9306,United States,US
Bhilai,21.2167,81.4333,India,IN
Yuyao,30.0372,121.1546,China,CN
N’Djamena,12.11,15.05,Chad,TD
Hanchuan,30.652,113.8274,China,CN
Gongzhuling,43.5036,124.8088,China,CN
Irbid,32.5556,35.85,Jordan,JO
Hāora,22.59,88.31,India,IN
Cologne,50.9422,6.9578,Germany,DE
Krasnoyarsk,56.0167,92.8667,Russia,RU
Yicheng,31.3697,119.8239,China,CN
São Gonçalo,-22.8269,-43.0539,Brazil,BR
Nashville,36.1715,-86.7843,United States,US
Yerevan,40.1814,44.5144,Armenia,AM
Rānchi,23.3556,85.3347,India,IN
Nur-Sultan,51.1333,71.4333,Kazakhstan,KZ
Nouakchott,18.0858,-15.9785,Mauritania,MR
Vereeniging,-26.6736,27.9319,South Africa,ZA
Richmond,37.5295,-77.4756,United States,US
São Luís,-2.53,-44.3028,Brazil,BR
San Pedro Sula,15.5,-88.0333,Honduras,HN
Taixing,32.1724,120.0142,China,CN
Memphis,35.1046,-89.9773,United States,US
Goyang,37.6564,126.835,"Korea, South",KR
Bezwāda,16.5167,80.6167,India,IN
Edmonton,53.5344,-113.4903,Canada,CA
Mizhou,35.99,119.3801,China,CN
Tunis,36.8008,10.18,Tunisia,TN
Xishan,27.6609,113.4946,China,CN
Ezhou,30.3972,114.8842,China,CN
Barquisimeto,10.0678,-69.3467,Venezuela,VE
Sendai,38.2683,140.8694,Japan,JP
Voronezh,51.6717,39.2106,Russia,RU
Perm,58.0139,56.2489,Russia,RU
Changwon,35.2281,128.6811,"Korea, South",KR
Zhongwei,37.5139,105.1884,China,CN
Shouguang,36.8833,118.7333,China,CN
Bogor,-6.6,106.8,Indonesia,ID
Raleigh,35.8325,-78.6435,United States,US
Cartagena,10.4236,-75.5253,Colombia,CO
Chandīgarh,30.7353,76.7911,India,IN
Bishkek,42.8667,74.5667,Kyrgyzstan,KG
Matola,-25.9667,32.4667,Mozambique,MZ
Ogbomoso,8.1333,4.25,Nigeria,NG
Ashgabat,37.95,58.3833,Turkmenistan,TM
Maceió,-9.6658,-35.735,Brazil,BR
Niamey,13.5086,2.1111,Niger,NE
Managua,12.15,-86.2667,Nicaragua,NI
Patam,1.0678,104.0167,Indonesia,ID
Tekirdağ,40.9833,27.5167,Turkey,TR
Shubrā al Khaymah,30.1286,31.2422,Egypt,EG
Linhai,28.8523,121.1409,China,CN
Monrovia,6.3106,-10.8047,Liberia,LR
Wafangdian,39.6271,121.9972,China,CN
Zhongxiang,31.169,112.5853,China,CN
Odesa,46.4775,30.7326,Ukraine,UA
Shymkent,42.3,69.6,Kazakhstan,KZ
New Orleans,30.0687,-89.9288,United States,US
Thủ Đức,10.8199,106.7909,Vietnam,VN
Volgograd,48.7086,44.5147,Russia,RU
Port-au-Prince,18.5425,-72.3386,Haiti,HT
Islamabad,33.6989,73.0369,Pakistan,PK
Mysore,12.3086,76.6531,India,IN
Xinyi,22.3559,110.9369,China,CN
Kathmandu,27.7167,85.3667,Nepal,NP
Raipur,21.2379,81.6337,India,IN
Nice,43.7034,7.2663,France,FR
Arequipa,-16.3988,-71.5369,Peru,PE
Port Harcourt,4.75,7,Nigeria,NG
Louisville,38.1663,-85.6485,United States,US
Zaoyang,32.1287,112.7581,China,CN
Shuizhai,33.4433,114.8994,China,CN
Dnipro,48.45,34.9833,Ukraine,UA
Kota,25.18,75.83,India,IN
Quetta,30.192,67.007,Pakistan,PK
Abu Dhabi,24.4781,54.3686,United Arab Emirates,AE
Stockholm,59.3294,18.0686,Sweden,SE
Ottawa,45.4247,-75.695,Canada,CA
Asmara,15.3333,38.9167,Eritrea,ER
Freetown,8.4833,-13.2331,Sierra Leone,SL
Jerusalem,31.7833,35.2167,Israel,IL
Bangui,4.3732,18.5628,Central African Republic,CF
Panama City,9,-79.5,Panama,PA
Amsterdam,52.3667,4.8833,Netherlands,NL
Lomé,6.1319,1.2228,Togo,TG
Libreville,0.3901,9.4544,Gabon,GA
Zagreb,45.8,15.95,Croatia,HR
Dushanbe,38.5731,68.7864,Tajikistan,TJ
Lilongwe,-13.9833,33.7833,Malawi,MW
Cotonou,6.4,2.52,Benin,BJ
Vientiane,17.9667,102.6,Laos,LA
Colombo,6.9167,79.8333,Sri Lanka,LK
Pretoria,-25.7464,28.1881,South Africa,ZA
Winnipeg,49.8844,-97.1464,Canada,CA
Quebec City,46.8139,-71.2081,Canada,CA
Oslo,59.9111,10.7528,Norway,NO
Athens,37.9842,23.7281,Greece,GR
Bujumbura,-3.3825,29.3611,Burundi,BI
Helsinki,60.1756,24.9342,Finland,FI
Skopje,41.9833,21.4333,Macedonia,MK
Chisinau,47.0228,28.8353,Moldova,MD
Riga,56.9475,24.1069,Latvia,LV
Copenhagen,55.6761,12.5689,Denmark,DK
Kingston,17.9714,-76.7931,Jamaica,JM
Rabat,34.0253,-6.8361,Morocco,MA
Vilnius,54.6833,25.2833,Lithuania,LT
San Salvador,13.6989,-89.1914,El Salvador,SV
Djibouti,11.595,43.1481,Djibouti,DJ
Lisbon,38.7452,-9.1604,Portugal,PT
Kitchener,43.4186,-80.4728,Canada,CA
Tallinn,59.4372,24.745,Estonia,EE
Cape Town,-33.925,18.425,South Africa,ZA
Bratislava,48.1447,17.1128,Slovakia,SK
Tirana,41.33,19.82,Albania,AL
Canberra,-35.2931,149.1269,Australia,AU
Wellington,-41.2889,174.7772,New Zealand,NZ
Beirut,33.8869,35.5131,Lebanon,LB
Dodoma,-6.1835,35.746,Tanzania,TZ
Halifax,44.6475,-63.5906,Canada,CA
Bissau,11.8592,-15.5956,Guinea-Bissau,GW
Juba,4.85,31.6,South Sudan,SS
Port Moresby,-9.4789,147.1494,Papua New Guinea,PG
Yamoussoukro,6.8161,-5.2742,Côte D’Ivoire,CI
Victoria,48.4283,-123.3647,Canada,CA
Maseru,-29.31,27.48,Lesotho,LS
Nicosia,35.1725,33.365,Cyprus,CY
Windhoek,-22.57,17.0836,Namibia,NA
Porto-Novo,6.4833,2.6167,Benin,BJ
Sucre,-19.0431,-65.2592,Bolivia,BO
San José,9.9333,-84.0833,Costa Rica,CR
Ljubljana,46.05,14.5167,Slovenia,SI
Sarajevo,43.8667,18.4167,Bosnia And Herzegovina,BA
Nassau,25.0667,-77.3333,"Bahamas, The",BS
Bloemfontein,-29.1,26.2167,South Africa,ZA
Fort-de-France,14.6104,-61.08,Martinique,MQ
Gaborone,-24.6569,25.9086,Botswana,BW
Paramaribo,5.8667,-55.1667,Suriname,SR
Dili,-8.5586,125.5736,Timor-Leste,TL
Pristina,42.6667,21.1667,Kosovo,XK
Georgetown,6.7833,-58.1667,Guyana,GY
Malabo,3.7521,8.7737,Equatorial Guinea,GQ
Gibraltar,36.1324,-5.3781,Gibraltar,GI
Saint-Denis,-20.8789,55.4481,Reunion,RE
Male,4.175,73.5083,Maldives,MV
Podgorica,42.4397,19.2661,Montenegro,ME
Manama,26.225,50.5775,Bahrain,BH
Port Louis,-20.1667,57.5,Mauritius,MU
Willemstad,12.108,-68.935,Curaçao,CW
New Delhi,28.7,77.2,India,IN
Bern,46.948,7.4474,Switzerland,CH
Papeete,-17.5334,-149.5667,French Polynesia,PF
Reykjavík,64.1475,-21.935,Iceland,IS
Praia,14.9177,-23.5092,Cabo Verde,CV
Luxembourg,49.6106,6.1328,Luxembourg,LU
Sri Jayewardenepura Kotte,6.9,79.9164,Sri Lanka,LK
Bridgetown,13.0975,-59.6167,Barbados,BB
Moroni,-11.7036,43.2536,Comoros,KM
Thimphu,27.4833,89.6333,Bhutan,BT
Mbabane,-26.3208,31.1617,Swaziland,SZ
Nouméa,-22.2625,166.4443,New Caledonia,NC
Honiara,-9.4333,159.95,Solomon Islands,SB
Suva,-18.1333,178.4333,Fiji,FJ
Castries,14.0167,-60.9833,Saint Lucia,LC
Cayenne,4.933,-52.33,French Guiana,GF
São Tomé,0.3333,6.7333,Sao Tome And Principe,ST
Port-Vila,-17.7333,168.3167,Vanuatu,VU
Hamilton,32.2942,-64.7839,Bermuda,BM
Bandar Seri Begawan,4.9167,114.9167,Brunei,BN
Monaco,43.7396,7.4069,Monaco,MC
Gitega,-3.4264,29.9306,Burundi,BI
Port of Spain,10.6667,-61.5167,Trinidad And Tobago,TT
Apia,-13.8333,-171.8333,Samoa,WS
Douglas,54.15,-4.4819,Isle Of Man,IM
Oranjestad,12.5186,-70.0358,Aruba,AW
Saint Helier,49.1833,-2.1167,Jersey,JE
Vaduz,47.1415,9.5215,Liechtenstein,LI
Banjul,13.4531,-16.5775,"Gambia, The",GM
Mamoudzou,-12.7871,45.275,Mayotte,YT
Majuro,7.0918,171.3802,Marshall Islands,MH
Tarawa,1.3382,173.0176,Kiribati,KI
George Town,19.2866,-81.3744,Cayman Islands,KY
Victoria,-4.6236,55.4544,Seychelles,SC
Kingstown,13.1667,-61.2333,Saint Vincent And The Grenadines,VC
Saint John’s,17.1211,-61.8447,Antigua And Barbuda,AG
Nuku‘alofa,-21.1347,-175.2083,Tonga,TO
Andorra la Vella,42.5,1.5,Andorra,AD
Nuuk,64.175,-51.7333,Greenland,GL
Belmopan,17.25,-88.7675,Belize,BZ
Roseau,15.3,-61.3833,Dominica,DM
Basseterre,17.2983,-62.7342,Saint Kitts And Nevis,KN
Tórshavn,62,-6.7833,Faroe Islands,FO
Pago Pago,-14.274,-170.7046,American Samoa,AS
Valletta,35.8978,14.5125,Malta,MT
Gaza,31.5069,34.456,Gaza Strip,XG
Grand Turk,21.4664,-71.136,Turks And Caicos Islands,TC
Palikir,6.9178,158.185,"Micronesia, Federated States Of",FM
Funafuti,-8.5167,179.2167,Tuvalu,TV
Lobamba,-26.4465,31.2064,Swaziland,SZ
Avarua,-21.207,-159.771,Cook Islands,CK
Saint George’s,12.0444,-61.7417,Grenada,GD
San Marino,43.932,12.4484,San Marino,SM
Al Quds,31.7764,35.2269,West Bank,XW
Capitol Hill,15.2137,145.7546,Northern Mariana Islands,MP
Basse-Terre,16,-61.7167,Guadeloupe,GP
Stanley,-51.7,-57.85,Falkland Islands (Islas Malvinas),FK
Vatican City,41.9,12.4478,Vatican City,VA
Alofi,-19.056,-169.921,Niue,NU
Hagåtña,13.4745,144.7504,Guam,GU
Jamestown,-15.9251,-5.7179,"Saint Helena, Ascension, And Tristan Da Cunha",SH
Marigot,18.0706,-63.0847,Saint Martin,MF
Philipsburg,18.0256,-63.0492,Sint Maarten,SX
Road Town,18.4167,-64.6167,"Virgin Islands, British",VG
Gustavia,17.8958,-62.8508,Saint Barthelemy,BL
Saint-Pierre,46.7811,-56.1764,Saint Pierre And Miquelon,PM
The Valley,18.2167,-63.05,Anguilla,AI
Mata-Utu,-13.2825,-176.1736,Wallis And Futuna,WF
Kingston,-29.0569,167.9617,Norfolk Island,NF
Ngerulmud,7.5006,134.6242,Palau,PW
Tifariti,26.0928,-10.6089,Morocco,MA
Tifariti,26.0928,-10.6089,Western Sahara,EH
Longyearbyen,78.2167,15.6333,Svalbard,XR
Adamstown,-25.0667,-130.0833,Pitcairn Islands,PN
Flying Fish Cove,-10.4167,105.7167,Christmas Island,CX
Bareilly,28.364,79.415,India,IN
Quảng Hà,16.06,108.25,Vietnam,VN
Soacha,4.5781,-74.2144,Colombia,CO
Kitaku,33.8704,130.82,Japan,JP
Jodhpur,26.2918,73.0168,India,IN
Xingcheng,24.1681,115.6669,China,CN
Dongtai,32.8534,120.3037,China,CN
Yingcheng,24.1878,113.4042,China,CN
Al Manşūrah,31.05,31.3833,Egypt,EG
Glasgow,55.8609,-4.2514,United Kingdom,GB
Chiba,35.6,140.1,Japan,JP
Luocheng,22.7645,111.5745,China,CN
Danyang,31.9948,119.575,China,CN
Natal,-6.9838,-60.2699,Brazil,BR
Zhaodong,46.0635,125.9773,China,CN
Nada,19.5,109.5833,China,CN
Xibeijie,39.737,98.5049,China,CN
Kirkuk,35.4667,44.4,Iraq,IQ
Naples,40.8333,14.25,Italy,IT
Wuchuan,21.4283,110.7749,China,CN
Huilong,31.8131,121.6574,China,CN
Oklahoma City,35.4676,-97.5136,United States,US
Toulouse,43.6045,1.444,France,FR
Málaga,36.7194,-4.42,Spain,ES
Denizli,37.7731,29.0878,Turkey,TR
Dispur,26.15,91.77,India,IN
Coimbatore,11,76.9667,India,IN
Guwāhāti,26.1667,91.7667,India,IN
Sŏngnam,37.4386,127.1378,"Korea, South",KR
Taishan,22.2486,112.785,China,CN
Solāpur,17.6833,75.9167,India,IN
Tangier,35.7767,-5.8039,Morocco,MA
Anqiu,36.3619,119.1072,China,CN
Feicheng,36.186,116.772,China,CN
Meishan,34.1736,112.839,China,CN
Kisangani,0.5153,25.1911,Congo (Kinshasa),CD
Khartoum North,15.6333,32.6333,Sudan,SD
Aguascalientes,21.876,-102.296,Mexico,MX
Marrakech,31.6295,-7.9811,Morocco,MA
Donetsk,48.0089,37.8042,Ukraine,UA
Taihecun,45.768,131.0063,China,CN
Trujillo,-8.1119,-79.0289,Peru,PE
Cebu City,10.3,123.9,Philippines,PH
Taihe,30.8706,105.3784,China,CN
Bridgeport,41.1918,-73.1953,United States,US
Antwerp,51.2206,4.4003,Belgium,BE
Trichinopoly,10.8269,78.6928,India,IN
Xin’an,34.3662,118.3369,China,CN
Padang,-0.9556,100.3606,Indonesia,ID
Qingzhou,36.6967,118.4797,China,CN
Buffalo,42.9016,-78.8487,United States,US
Lichuan,30.2965,108.9378,China,CN
Daye,30.1003,114.9699,China,CN
Fort Worth,32.7811,-97.3473,United States,US
Hengzhou,22.6896,109.2674,China,CN
Campo Grande,-20.4686,-54.6222,Brazil,BR
Zhuanghe,39.6896,122.9664,China,CN
Hartford,41.7661,-72.6834,United States,US
Ad Dammām,26.4333,50.1,Saudi Arabia,SA
Bucheon,37.4989,126.7831,"Korea, South",KR
Lhasa,29.65,91.1,China,CN
Homs,34.7333,36.7167,Syria,SY
Jiaozhou,36.2481,119.9625,China,CN
Mérida,20.97,-89.62,Mexico,MX
Yangchun,22.1717,111.7846,China,CN
Concepción,-36.82,-73.0445,Chile,CL
Dengtalu,36.08,114.35,China,CN
Hubli,15.36,75.125,India,IN
Abeokuta,7.15,3.35,Nigeria,NG
Tucson,32.1545,-110.8782,United States,US
Krasnodar,45.0333,38.9833,Russia,RU
Natal,-5.795,-35.2089,Brazil,BR
Chihuahua,28.6353,-106.0889,Mexico,MX
Klang,3.0333,101.45,Malaysia,MY
Turin,45.0667,7.7,Italy,IT
Jos,9.9333,8.8833,Nigeria,NG
Laiyang,36.9758,120.7136,China,CN
Jalandhar,31.3256,75.5792,India,IN
Sale,34.05,-6.8167,Morocco,MA
Marseille,43.2964,5.37,France,FR
Kaifeng Chengguanzhen,34.85,114.35,China,CN
Eskişehir,39.7767,30.5206,Turkey,TR
Gaomi,36.3833,119.75,China,CN
Teresina,-5.0949,-42.8042,Brazil,BR
Ipoh,4.6,101.07,Malaysia,MY
Hai’an,32.532,120.4604,China,CN
Liverpool,53.4,-2.9833,United Kingdom,GB
Zamboanga City,6.9167,122.0833,Philippines,PH
Oran,35.6969,-0.6331,Algeria,DZ
Southampton,50.9,-1.4,United Kingdom,GB
Weichanglu,37.1792,119.9333,China,CN
Pekanbaru,0.5333,101.45,Indonesia,ID
Portsmouth,50.8058,-1.0872,United Kingdom,GB
Leping,28.9632,117.1203,China,CN
Kermānshāh,34.3167,47.0686,Iran,IR
Hailun,47.4585,126.9632,China,CN
Macheng,31.1817,115.0189,China,CN
Ilorin,8.5,4.55,Nigeria,NG
Omaha,41.2627,-96.0522,United States,US
Yuci,37.6804,112.73,China,CN
Saratov,51.5333,46,Russia,RU
São Bernardo do Campo,-23.6939,-46.565,Brazil,BR
Erbil,36.1911,44.0094,Iraq,IQ
Iguaçu,-22.74,-43.47,Brazil,BR
El Paso,31.8479,-106.4309,United States,US
Denpasar,-8.6667,115.2167,Indonesia,ID
Dehui,44.5323,125.6965,China,CN
Naucalpan de Juárez,19.4753,-99.2378,Mexico,MX
Bhubaneshwar,20.2644,85.8281,India,IN
Tongchuan,34.9057,108.9422,China,CN
Cheongju,36.6372,127.4897,"Korea, South",KR
Warri,5.5167,5.75,Nigeria,NG
Pointe-Noire,-4.7889,11.8653,Congo (Brazzaville),CG
Rongjiawan,29.1409,113.1087,China,CN
Butterworth,5.3942,100.3664,Malaysia,MY
Bhayandar,19.3,72.85,India,IN
San Luis Potosí,22.1511,-100.9761,Mexico,MX
Renqiu,38.7094,116.1008,China,CN
João Pessoa,-7.12,-34.88,Brazil,BR
Toluca,19.2925,-99.6569,Mexico,MX
Honolulu,21.3294,-157.846,United States,US
Querétaro,20.5875,-100.3928,Mexico,MX
Xindi,29.8182,113.4653,China,CN
Wu’an,36.6941,114.1847,China,CN
Hermosillo,29.0989,-110.9542,Mexico,MX
Wutong,30.6326,120.5474,China,CN
Taguig City,14.5167,121.05,Philippines,PH
Saltillo,25.4333,-101,Mexico,MX
Gaoyou,32.7847,119.4432,China,CN
Hejian,38.4451,116.0897,China,CN
Yiyang,26.4103,112.3913,China,CN
Puxi,35.2125,114.735,China,CN
Zijinglu,34.7513,112.9854,China,CN
Trabzon,41.005,39.7225,Turkey,TR
Xiashi,30.5333,120.6833,China,CN
Valencia,39.47,-0.3764,Spain,ES
Dongyang,29.2785,120.2282,China,CN
McAllen,26.2273,-98.2471,United States,US
Abaeté,-19.1583,-45.4522,Brazil,BR
Palermo,2.8883,-75.4339,Colombia,CO
Johor Bahru,1.4556,103.7611,Malaysia,MY
Qingping,34.538,113.3796,China,CN
Morelia,19.7683,-101.1894,Mexico,MX
Niigata,37.9161,139.0364,Japan,JP
Pasig City,14.575,121.0833,Philippines,PH
Morādābād,28.8418,78.7568,India,IN
Hamamatsu,34.7167,137.7333,Japan,JP
Culiacán,24.8069,-107.3939,Mexico,MX
Xiangxiang,27.7389,112.5223,China,CN
Malang,-7.98,112.62,Indonesia,ID
Xingyi,25.091,104.9011,China,CN
Chaohucun,31.6783,117.7353,China,CN
Fuyang,30.0533,119.9519,China,CN
Antipolo,14.5842,121.1763,Philippines,PH
Lubango,-14.9167,13.5,Angola,AO
Nottingham,52.95,-1.15,United Kingdom,GB
Cencheng,22.9297,111.0186,China,CN
Kraków,50.0614,19.9372,Poland,PL
Erzurum,39.9097,41.2756,Turkey,TR
Hempstead,40.6629,-73.6089,United States,US
Al ‘Ayn,24.2075,55.7447,United Arab Emirates,AE
Songzi,30.1772,111.7732,China,CN
Laixi,36.8667,120.5333,China,CN
Bahawalpur,29.3956,71.6722,Pakistan,PK
Zhongba,31.7761,104.7406,China,CN
Qingnian,36.8494,115.7061,China,CN
Albuquerque,35.1053,-106.6464,United States,US
Kaduna,10.5231,7.4403,Nigeria,NG
Tlalnepantla,19.5367,-99.1947,Mexico,MX
Xinhualu,34.3962,113.7249,China,CN
Guangshui,31.6189,113.8229,China,CN
Frankfurt,50.1136,8.6797,Germany,DE
Samarinda,-0.5022,117.1536,Indonesia,ID
Changhua,24.0667,120.5333,Taiwan,TW
Pietermaritzburg,-29.5833,30.4167,South Africa,ZA
Hŭngnam,39.8231,127.6232,"Korea, North",KP
Kolhāpur,16.7,74.2333,India,IN
Ciudad Guayana,8.3596,-62.6517,Venezuela,VE
Cúcuta,7.9075,-72.5047,Colombia,CO
Licheng,31.4174,119.4786,China,CN
Thiruvananthapuram,8.5,76.8997,India,IN
Tyumen,57.15,65.5333,Russia,RU
Cancún,21.1606,-86.8475,Mexico,MX
Zaporizhzhia,47.8378,35.1383,Ukraine,UA
Tlajomulco de Zúñiga,20.4736,-103.4431,Mexico,MX
Chengguan,35.4599,113.7975,China,CN
Kumamoto,32.8031,130.7078,Japan,JP
Nehe,48.48,124.8738,China,CN
Sokoto,13.0622,5.2339,Nigeria,NG
Birmingham,33.5277,-86.7987,United States,US
Zunhua,40.1881,117.9593,China,CN
Orūmīyeh,37.5486,45.0675,Iran,IR
Oyo,7.8333,3.9333,Nigeria,NG
Wugang,26.7345,110.6293,China,CN
Shuangqiao,35.0833,112.5833,China,CN
Rennes,48.1147,-1.6794,France,FR
Sizhan,39.0099,106.3694,China,CN
Comodoro Rivadavia,-45.8667,-67.5,Argentina,AR
Langzhong,31.5833,105.972,China,CN
Bristol,51.45,-2.5833,United Kingdom,GB
Qian’an,40.0059,118.6973,China,CN
Lviv,49.8419,24.0315,Ukraine,UA
Zouping,36.8625,117.7424,China,CN
Bremen,53.1153,8.7975,Germany,DE
Reynosa,26.0922,-98.2778,Mexico,MX
An Najaf,32.029,44.3396,Iraq,IQ
Sagamihara,35.5667,139.3667,Japan,JP
Guli,28.9008,120.0284,China,CN
Sarasota,27.3386,-82.5431,United States,US
Mississauga,43.6,-79.65,Canada,CA
Lingbao Chengguanzhen,34.5221,110.8786,China,CN
Okayama,34.65,133.9167,Japan,JP
Anlu,31.2575,113.6783,China,CN
Wusong,30.9333,117.7667,China,CN
Dayton,39.7797,-84.1998,United States,US
Changsha,22.3762,112.6877,China,CN
Enugu,6.4403,7.4942,Nigeria,NG
George Town,5.4145,100.3292,Malaysia,MY
Jaboatão,-8.1803,-35.0014,Brazil,BR
Santo André,-23.6572,-46.5333,Brazil,BR
Xichang,27.8983,102.2706,China,CN
Soledad,10.92,-74.77,Colombia,CO
Chengxiang,31.4515,121.1043,China,CN
Tolyatti,53.5167,49.4167,Russia,RU
Sahāranpur,29.964,77.546,India,IN
Warangal,17.9756,79.6011,India,IN
Edogawa,35.6924,139.8757,Japan,JP
Osasco,-23.5328,-46.7919,Brazil,BR
Dashiqiao,40.6328,122.5021,China,CN
Latakia,35.5236,35.7917,Syria,SY
Rochester,43.168,-77.6162,United States,US
Fresno,36.7831,-119.7941,United States,US
Banjarmasin,-3.3333,114.5833,Indonesia,ID
Salem,11.65,78.1667,India,IN
Uberlândia,-18.9189,-48.2769,Brazil,BR
Shishi,24.7355,118.6434,China,CN
Grenoble,45.1715,5.7224,France,FR
Guadalupe,25.6775,-100.2597,Mexico,MX
Adachi,35.7833,139.8,Japan,JP
Qianxi,27.0284,106.0327,China,CN
Aracaju,-10.9111,-37.0717,Brazil,BR
Bauchi,10.3158,9.8442,Nigeria,NG
Hamilton,43.2567,-79.8692,Canada,CA
Łódź,51.7769,19.4547,Poland,PL
Miluo Chengguanzhen,28.8049,113.0745,China,CN
Gaizhou,40.4019,122.3499,China,CN
Mālegaon,20.55,74.55,India,IN
Karbalā’,32.6167,44.0333,Iraq,IQ
Leling,37.7333,117.2167,China,CN
São José dos Campos,-23.1789,-45.8869,Brazil,BR
Jianshe,34.2189,113.7693,China,CN
Acapulco de Juárez,16.8636,-99.8825,Mexico,MX
Sheffield,53.3833,-1.4667,United Kingdom,GB
Shizuoka,34.9756,138.3825,Japan,JP
Jingcheng,32.0058,120.2547,China,CN
City of Parañaque,14.4667,121.0167,Philippines,PH
Kochi,9.9667,76.2833,India,IN
Allentown,40.5961,-75.4756,United States,US
Tasikmalaya,-7.3333,108.2,Indonesia,ID
Macau,22.203,113.545,Macau,MO
Torreón,25.5394,-103.4486,Mexico,MX
Xinmin,41.9952,122.8224,China,CN
Shanhu,29.5908,120.8176,China,CN
Zhongshu,27.8116,106.4133,China,CN
Xigazê,29.2649,88.8799,China,CN
Gold Coast,-28.0167,153.4,Australia,AU
Cagayan de Oro,8.4833,124.65,Philippines,PH
Gorakhpur,26.7611,83.3667,India,IN
Pinghu,30.7005,121.0104,China,CN
Palermo,38.1157,13.3613,Italy,IT
Guankou,30.9933,103.624,China,CN
Tulsa,36.1284,-95.9042,United States,US
Yatou,37.1653,122.4867,China,CN
Songyang,34.4161,113.0424,China,CN
Cape Coral,26.6446,-81.9956,United States,US
Ch’ŏngjin,41.8,129.7831,"Korea, North",KP
Puyang Chengguanzhen,35.7004,114.98,China,CN
Qionghu,28.8417,112.3595,China,CN
Ribeirão Prêto,-21.1783,-47.8067,Brazil,BR
Dasmariñas,14.3294,120.9367,Philippines,PH
Wenchang,31.054,116.9507,China,CN
Shulan,44.4167,126.95,China,CN
Catia La Mar,10.6,-67.0333,Venezuela,VE
Sargodha,32.0836,72.6711,Pakistan,PK
Bouaké,7.6833,-5.0331,Côte D’Ivoire,CI
Sialkot City,32.5,74.5333,Pakistan,PK
As Sulaymānīyah,35.55,45.4333,Iraq,IQ
Hwasu-dong,37.2,126.7667,"Korea, South",KR
Jeonju,35.8219,127.1489,"Korea, South",KR
Durango,24.0167,-104.6667,Mexico,MX
Shimoga,13.9304,75.56,India,IN
Ansan,37.3236,126.8219,"Korea, South",KR
Bulawayo,-20.1667,28.5667,Zimbabwe,ZW
Xiping,25.6005,103.8166,China,CN
Sanhe,39.9808,117.0701,China,CN
Guntūr,16.3,80.45,India,IN
Dali,25.7003,100.1564,China,CN
Concord,37.9722,-122.0016,United States,US
Contagem,-19.9319,-44.0539,Brazil,BR
Tiruppūr,11.1075,77.3398,India,IN
Ch’ŏnan,36.8064,127.1522,"Korea, South",KR
Zaragoza,41.6483,-0.883,Spain,ES
Düsseldorf,51.2311,6.7724,Germany,DE
Izhevsk,56.85,53.2167,Russia,RU
Guixi,28.2861,117.2083,China,CN
Sorocaba,-23.5019,-47.4578,Brazil,BR
Villahermosa,17.9892,-92.9281,Mexico,MX
Petaling Jaya,3.1073,101.6067,Malaysia,MY
Tengyue,25.0208,98.4972,China,CN
Wuxue,29.8518,115.5539,China,CN
Utrecht,52.0908,5.1222,Netherlands,NL
Kikwit,-5.0333,18.8167,Congo (Kinshasa),CD
Colorado Springs,38.8674,-104.7606,United States,US
Valenzuela,14.7,120.9833,Philippines,PH
Qufu,35.6,116.9833,China,CN
Gaobeidian,39.3257,115.8678,China,CN
Ruiming,25.8833,116.0333,China,CN
Wrocław,51.11,17.0325,Poland,PL
Rasht,37.2833,49.6,Iran,IR
Nantes,47.2181,-1.5528,France,FR
Stuttgart,48.7761,9.1775,Germany,DE
Al Hufūf,25.3608,49.5997,Saudi Arabia,SA
Xinshi,31.0236,113.1079,China,CN
Cochabamba,-17.3935,-66.157,Bolivia,BO
Barnaul,53.3567,83.7872,Russia,RU
Tripoli,34.4333,35.8333,Lebanon,LB
Jin’e,29.3395,105.2868,China,CN
Rotterdam,51.9225,4.4792,Netherlands,NL
Benghazi,32.1167,20.0667,Libya,LY
Kryvyi Rih,47.9086,33.3433,Ukraine,UA
Yanggok,37.6367,127.2142,"Korea, South",KR
Changping,40.2248,116.1944,China,CN
Raurkela,22.2492,84.8828,India,IN
Ḩalwān,29.8419,31.3342,Egypt,EG
Charleston,32.8153,-79.9628,United States,US
Chimalhuacán,19.4167,-98.9,Mexico,MX
Xinxing,39.8734,124.1453,China,CN
Suohe,34.7879,113.392,China,CN
Mangalore,12.8703,74.8806,India,IN
Zhuangyuan,37.3,120.8333,China,CN
Ulyanovsk,54.3167,48.3667,Russia,RU
Irkutsk,52.2833,104.3,Russia,RU
Nānded,19.15,77.3333,India,IN
Bacoor,14.4624,120.9645,Philippines,PH
Pontianak,-0.0206,109.3414,Indonesia,ID
Villa Nueva,14.5314,-90.5964,Guatemala,GT
Bazhou,39.1235,116.386,China,CN
Springfield,42.1155,-72.5395,United States,US
Turpan,42.95,89.1822,China,CN
Xingtai,37.0659,114.4753,China,CN
Meihekou,42.5279,125.678,China,CN
Cuiabá,-15.5958,-56.0969,Brazil,BR
Jurong,31.9579,119.1595,China,CN
Feira de Santana,-12.2669,-38.9669,Brazil,BR
Khabarovsk,48.4833,135.0667,Russia,RU
Zhugang,28.1277,121.2288,China,CN
Xinji,37.9423,115.2118,China,CN
Hamhŭng,39.9656,127.4886,"Korea, North",KP
Serang,-6.12,106.1503,Indonesia,ID
Sanya,18.2536,109.5019,China,CN
Buraydah,26.3333,43.9667,Saudi Arabia,SA
Ta‘izz,13.5789,44.0219,Yemen,YE
Montpellier,43.6119,3.8772,France,FR
San Miguel de Tucumán,-26.8167,-65.2167,Argentina,AR
Yaroslavl,57.6167,39.85,Russia,RU
Zhangshu,28.0667,115.5375,China,CN
Grand Rapids,42.962,-85.6562,United States,US
Vladivostok,43.1167,131.9,Russia,RU
Kuantan,3.8167,103.3333,Malaysia,MY
Gothenburg,57.6717,11.981,Sweden,SE
Cuttack,20.45,85.8667,India,IN
Jambi,-1.59,103.61,Indonesia,ID
Zhuozhou,39.4887,115.9918,China,CN
Tianchang,32.6853,119.0041,China,CN
Las Piñas City,14.45,120.9833,Philippines,PH
Cimahi,-6.8833,107.5333,Indonesia,ID
Tuxtla,16.7528,-93.1167,Mexico,MX
Balikpapan,-1.1489,116.9031,Indonesia,ID
Qamdo,31.1375,97.1777,China,CN
Joinvile,-26.3039,-48.8458,Brazil,BR
Durban,-29.8583,31.025,South Africa,ZA
General Santos,6.1167,125.1667,Philippines,PH
Chānda,19.95,79.3,India,IN
Kagoshima,31.58,130.5281,Japan,JP
Leipzig,51.3333,12.3833,Germany,DE
Al Ḩillah,23.4895,46.7564,Saudi Arabia,SA
Makhachkala,42.9833,47.4833,Russia,RU
Sihui,23.3448,112.6956,China,CN
Mar del Plata,-38,-57.55,Argentina,AR
Brampton,43.6833,-79.7667,Canada,CA
Luocheng,30.9793,104.28,China,CN
Pereira,4.8143,-75.6946,Colombia,CO
Mission Viejo,33.6095,-117.655,United States,US
Dortmund,51.5139,7.4653,Germany,DE
Chuxiong,25.0461,101.5436,China,CN
Makati City,14.55,121.0333,Philippines,PH
Albany,42.6664,-73.7987,United States,US
Shah Alam,3.0833,101.5333,Malaysia,MY
Knoxville,35.9692,-83.9496,United States,US
Essen,51.4508,7.0131,Germany,DE
Shangzhi,45.2116,127.962,China,CN
Botou,38.074,116.57,China,CN
Bucaramanga,7.1186,-73.1161,Colombia,CO
Anyang,37.3925,126.9269,"Korea, South",KR
Genoa,44.4072,8.934,Italy,IT
Kuiju,36.8528,119.3904,China,CN
Tlaquepaque,20.6167,-103.3167,Mexico,MX
Puente Alto,-33.6167,-70.5833,Chile,CL
Dehra Dūn,30.318,78.029,India,IN
Aţ Ţā’if,21.2667,40.4167,Saudi Arabia,SA
San Jose del Monte,14.8139,121.0453,Philippines,PH
Bakersfield,35.3529,-119.0359,United States,US
Wancheng,18.8,110.4,China,CN
Hachiōji,35.6667,139.3167,Japan,JP
Ogden,41.2278,-111.9682,United States,US
Xiulin,29.7211,112.4037,China,CN
Fu’an,27.1,119.6333,China,CN
Tomsk,56.4886,84.9522,Russia,RU
Kermān,30.2833,57.0667,Iran,IR
Kingston upon Hull,53.7444,-0.3325,United Kingdom,GB
Al Maḩallah al Kubrá,30.9667,31.1667,Egypt,EG
Kumul,42.8322,93.5155,China,CN
Luofeng,37.359,120.396,China,CN
Lingyuan,41.2407,119.3957,China,CN
Baton Rouge,30.4418,-91.131,United States,US
Wencheng,19.6167,110.75,China,CN
Ciudad Bolívar,8.1167,-63.55,Venezuela,VE
Durgāpur,23.55,87.32,India,IN
Orenburg,51.7667,55.1,Russia,RU
Shenzhou,38.0005,115.5541,China,CN
Āsansol,23.6833,86.9667,India,IN
Bacolod,10.6765,122.9509,Philippines,PH
Akron,41.0798,-81.5219,United States,US
New Haven,41.3112,-72.9246,United States,US
Zhenzhou,32.2739,119.1619,China,CN
Surakarta,-7.5667,110.8167,Indonesia,ID
Jieshou,33.2605,115.3618,China,CN
Lanxi,29.2167,119.4722,China,CN
Zāhedān,29.4833,60.8667,Iran,IR
Dangyang,30.8258,111.791,China,CN
Columbia,34.0376,-80.9037,United States,US
Kemerovo,55.3333,86.0667,Russia,RU
Dresden,51.05,13.74,Germany,DE
Veracruz,19.1903,-96.1533,Mexico,MX
Bhāvnagar,21.765,72.1369,India,IN
Luanzhou,39.7396,118.6978,China,CN
Novokuznetsk,53.75,87.1167,Russia,RU
Nellore,14.4333,79.9667,India,IN
Chiclayo,-6.763,-79.8366,Peru,PE
Palma,39.5667,2.65,Spain,ES
Al Ḩudaydah,14.8022,42.9511,Yemen,YE
Eslāmshahr,35.5333,51.2,Iran,IR
Cabinda,-5.5667,12.2,Angola,AO
Amrāvati,20.9333,77.75,India,IN
Korla,41.7646,86.1527,China,CN
Huanghua,38.371,117.3329,China,CN
Londrina,-23.31,-51.1628,Brazil,BR
Tabūk,28.3838,36.555,Saudi Arabia,SA
Xingcheng,40.6189,120.7205,China,CN
Kaiyuan,42.538,124.0371,China,CN
Valledupar,10.4603,-73.2597,Colombia,CO
Fengcheng,40.4543,124.0646,China,CN
Ajmer,26.468,74.639,India,IN
Tinnevelly,8.7289,77.7081,India,IN
Fuding,27.2,120.2,China,CN
Maturín,9.7457,-63.1832,Venezuela,VE
An Nāşirīyah,31.0439,46.2575,Iraq,IQ
Al Ḩillah,32.4833,44.4333,Iraq,IQ
Ibagué,4.4378,-75.2006,Colombia,CO
Hannover,52.3744,9.7386,Germany,DE
Ryazan,54.6167,39.7167,Russia,RU
Panshi,42.9392,126.0561,China,CN
Kassala,15.45,36.4,Sudan,SD
Ananindeua,-1.3658,-48.3719,Brazil,BR
Chang’an,29.4761,113.448,China,CN
Shashi,30.32,112.23,China,CN
Poznań,52.4,16.9167,Poland,PL
Aksu,41.1664,80.25,China,CN
Salta,-24.7883,-65.4106,Argentina,AR
Astrakhan,46.3333,48.0167,Russia,RU
Mingguang,32.7816,117.9899,China,CN
Naberezhnyye Chelny,55.7,52.3333,Russia,RU
Bīkaner,28.0181,73.3169,India,IN
Agartala,23.8333,91.2667,India,IN
Xalapa,19.54,-96.9275,Mexico,MX
Ndola,-12.9683,28.6337,Zambia,ZM
Hamadān,34.8065,48.5162,Iran,IR
Villavicencio,4.1425,-73.6294,Colombia,CO
Ailan Mubage,43.9167,81.3167,China,CN
Ensenada,31.8578,-116.6058,Mexico,MX
Lyon,45.76,4.84,France,FR
Bắc Ninh,21.1861,106.0763,Vietnam,VN
Ciudad Apodaca,25.7833,-100.1833,Mexico,MX
Santa Teresa del Tuy,10.2333,-66.65,Venezuela,VE
Maipú,-33.5167,-70.7667,Chile,CL
Penza,53.2,45,Russia,RU
Heroica Matamoros,25.8797,-97.5042,Mexico,MX
Port Said,31.25,32.2833,Egypt,EG
Yucheng,36.9329,116.6403,China,CN
Meknès,33.8833,-5.55,Morocco,MA
Nuremberg,49.4539,11.0775,Germany,DE
Pohang,36.0322,129.365,"Korea, South",KR
Anda,46.4078,125.3252,China,CN
Jinghong,22.0057,100.7948,China,CN
Utsunomiya,36.55,139.8833,Japan,JP
Liaoyuan,42.8976,125.1381,China,CN
Mesa,33.4017,-111.718,United States,US
Surrey,49.19,-122.8489,Canada,CA
Caxias do Sul,-29.1678,-51.1789,Brazil,BR
Heshan,22.7697,112.9578,China,CN
Cuautitlán Izcalli,19.65,-99.25,Mexico,MX
Ujjain,23.1828,75.7772,India,IN
Jiaji,19.2431,110.4642,China,CN
Santa Marta,11.2361,-74.2017,Colombia,CO
Beining,41.5933,121.7932,China,CN
Hải Dương,20.9399,106.3309,Vietnam,VN
Carrefour,18.5333,-72.4,Haiti,HT
Homyel’,52.4417,30.9833,Belarus,BY
Leicester,52.6333,-1.1333,United Kingdom,GB
Yanji,42.9044,129.5067,China,CN
Yicheng,31.7117,112.2551,China,CN
Lipetsk,52.6167,39.6,Russia,RU
Choloma,15.6333,-88,Honduras,HN
Ulhāsnagar,19.2167,73.15,India,IN
Encheng,22.1879,112.3131,China,CN
Muntinlupa City,14.3833,121.05,Philippines,PH
Linghai,41.1676,121.3558,China,CN
Aden,12.8,45.0333,Yemen,YE
Matsuyama,33.8333,132.7667,Japan,JP
Jhānsi,25.4486,78.5696,India,IN
Kitwe,-12.8208,28.2119,Zambia,ZM
Kashgar,39.45,75.9833,China,CN
Aba,5.1167,7.3667,Nigeria,NG
Palm Bay,27.955,-80.6627,United States,US
Pingtung,22.6761,120.4942,Taiwan,TW
Montería,8.76,-75.8856,Colombia,CO
Samarkand,39.6542,66.9597,Uzbekistan,UZ
Davangere,14.4667,75.9167,India,IN
Jammu,32.7333,74.85,India,IN
Mazatlán,23.22,-106.42,Mexico,MX
Murcia,37.9861,-1.1303,Spain,ES
Ile-Ife,7.4667,4.5667,Nigeria,NG
Kirov,58.6,49.65,Russia,RU
Qaraghandy,49.8,73.1167,Kazakhstan,KZ
Belas,-8.9983,13.265,Angola,AO
Mazatán,29.0167,-110.1333,Mexico,MX
Duisburg,51.4322,6.7611,Germany,DE
Mykolaiv,46.9667,32,Ukraine,UA
Provo,40.2457,-111.6457,United States,US
Meicheng,30.6412,116.5689,China,CN
Niterói,-22.8833,-43.1036,Brazil,BR
Matsudo,35.7878,139.9031,Japan,JP
Sukkur,27.6995,68.8673,Pakistan,PK
Rouen,49.4428,1.0886,France,FR
Higashi-ōsaka,34.6794,135.6008,Japan,JP
Worcester,42.2705,-71.8079,United States,US
Hongjiang,27.1167,109.95,China,CN
Chimbote,-9.0745,-78.5936,Peru,PE
Ixtapaluca,19.3186,-98.8822,Mexico,MX
Dengtacun,41.42,123.33,China,CN
Zhijiang,30.4271,111.7506,China,CN
Chengjiao,35.4043,114.0593,China,CN
Beipiao,41.802,120.7621,China,CN
Murrieta,33.572,-117.1909,United States,US
Kota Bharu,6.1333,102.25,Malaysia,MY
Ciudad López Mateos,19.55,-99.2833,Mexico,MX
Vinh,18.6733,105.6922,Vietnam,VN
Tultitlán de Mariano Escobedo,19.645,-99.1694,Mexico,MX
Duyun,26.2672,107.5143,China,CN
Kandahār,31.6078,65.7053,Afghanistan,AF
Nishinomiya-hama,34.7333,135.3333,Japan,JP
Larkana,27.56,68.2264,Pakistan,PK
Cheboksary,56.1333,47.25,Russia,RU
Yuanping,38.7299,112.7134,China,CN
Port Sudan,19.6158,37.2164,Sudan,SD
Edinburgh,55.953,-3.189,United Kingdom,GB
Belgaum,15.8667,74.5,India,IN
Tula,54.2,37.6167,Russia,RU
Suez,29.9667,32.5333,Egypt,EG
Shahe,36.8622,114.502,China,CN
Yazd,31.8972,54.3678,Iran,IR
Serra,-20.1289,-40.3078,Brazil,BR
Nazrēt,8.55,39.27,Ethiopia,ET
Gaoping,35.7911,112.9259,China,CN
Greenville,34.8353,-82.3647,United States,US
Arāk,34.08,49.7,Iran,IR
San Nicolás de los Garza,25.75,-100.2833,Mexico,MX
Gulbarga,17.3333,76.8333,India,IN
Juiz de Fora,-21.7642,-43.3503,Brazil,BR
Dunhua,43.3667,128.2333,China,CN
Brookhaven,40.8321,-72.9518,United States,US
Az Zarqā’,32.0833,36.1,Jordan,JO
Americana,-22.7392,-47.3314,Brazil,BR
Ardabīl,38.25,48.3,Iran,IR
Sylhet,24.9,91.8667,Bangladesh,BD
Wichita,37.6896,-97.3442,United States,US
Toledo,41.6639,-83.5822,United States,US
Kaihua,23.3715,104.2437,China,CN
Caerdydd,51.4833,-3.1833,United Kingdom,GB
Jāmnagar,22.47,70.07,India,IN
Dhūlia,20.9,74.7833,India,IN
Nampula,-15.1167,39.2667,Mozambique,MZ
Gaya,24.75,85.0167,India,IN
Florianópolis,-27.5933,-48.553,Brazil,BR
Chiniot,31.7167,72.9833,Pakistan,PK
Jiannan,31.3446,104.1994,China,CN
Ōita,33.2333,131.6067,Japan,JP
Wuhai,39.6708,106.8114,China,CN
Kaliningrad,54.7167,20.5,Russia,RU
Nangong,37.3606,115.3803,China,CN
Staten Island,40.5834,-74.1496,United States,US
San Juan,-31.5375,-68.5364,Argentina,AR
Vila Velha,-20.3364,-40.2936,Brazil,BR
Macapá,0.033,-51.0653,Brazil,BR
Shekhupura,31.7083,74,Pakistan,PK
Des Moines,41.5725,-93.6105,United States,US
Piura,-5.2008,-80.6253,Peru,PE
Jiaojiangcun,28.6804,121.45,China,CN
Laohekou,32.3849,111.6695,China,CN
Beian,48.2395,126.5037,China,CN
Fujin,47.2489,132.0341,China,CN
Celaya,20.5222,-100.8122,Mexico,MX
Xiaoyi,37.1449,111.7718,China,CN
Strasbourg,48.5833,7.7458,France,FR
Lanús,-34.7,-58.4,Argentina,AR
Qingzhen,26.5555,106.4646,China,CN
Jiangshan,28.7412,118.6225,China,CN
Ba‘qūbah,33.7447,44.6436,Iraq,IQ
Tamale,9.4075,-0.8533,Ghana,GH
Gdańsk,54.3667,18.6333,Poland,PL
Manado,1.4931,124.8413,Indonesia,ID
Jinchang,38.5168,102.1866,China,CN
Kanazawa,36.6,136.6167,Japan,JP
Calabar,4.95,8.325,Nigeria,NG
Long Beach,33.7981,-118.1675,United States,US
Malatya,38.3554,38.3337,Turkey,TR
Huế,16.4637,107.5908,Vietnam,VN
Cranbourne,-38.0996,145.2834,Australia,AU
Jalgaon,21.0167,75.5667,India,IN
Port St. Lucie,27.2796,-80.3883,United States,US
Mauá,-23.6678,-46.4608,Brazil,BR
Fukuyama,34.4858,133.3625,Japan,JP
Tel Aviv-Yafo,32.08,34.78,Israel,IL
Xicheng,23.3629,103.1545,China,CN
Marikina City,14.65,121.1,Philippines,PH
Pyeongtaek,36.9947,127.0889,"Korea, South",KR
Kurnool,15.8222,78.035,India,IN
City of Calamba,14.2167,121.1667,Philippines,PH
Denton,33.2176,-97.1419,United States,US
Ar Ramādī,33.4258,43.2992,Iraq,IQ
Melaka,2.1889,102.2511,Malaysia,MY
Jian’ou,27.0387,118.3215,China,CN
Huadian,42.9688,126.7388,China,CN
Taoyuan District,24.9889,121.3111,Taiwan,TW
Iloilo,10.7167,122.5667,Philippines,PH
Kota Kinabalu,5.975,116.0725,Malaysia,MY
Minzhu,43.7192,127.337,China,CN
Rājshāhi,24.3667,88.6,Bangladesh,BD
Ţanţā,30.7833,31,Egypt,EG
Balashikha,55.8,37.95,Russia,RU
Udaipur,24.5833,73.6833,India,IN
Kursk,51.7372,36.1872,Russia,RU
Mariupol,47.1306,37.5639,Ukraine,UA
Bukavu,-2.5,28.8667,Congo (Kinshasa),CD
Hsinchu,24.8047,120.9714,Taiwan,TW
Barcelona,10.1333,-64.6833,Venezuela,VE
Constantine,36.365,6.6147,Algeria,DZ
Tanbei,35.0907,112.9317,China,CN
Ado-Ekiti,7.6167,5.2167,Nigeria,NG
Batman,37.8833,41.1333,Turkey,TR
Pasay City,14.55,121,Philippines,PH
Madison,43.0826,-89.3931,United States,US
Baisha,29.4774,119.2853,China,CN
Betim,-19.9678,-44.1978,Brazil,BR
Bellary,15.15,76.915,India,IN
Santiago de Cuba,20.0283,-75.8206,Cuba,CU
Yongji,34.867,110.4417,China,CN
Reno,39.5497,-119.8483,United States,US
Danjiangkou,32.5408,111.5098,China,CN
Kahramanmaraş,37.5875,36.9453,Turkey,TR
São José do Rio Prêto,-20.82,-49.3789,Brazil,BR
Andijon,40.7,72.35,Uzbekistan,UZ
Harrisburg,40.2752,-76.8843,United States,US
Nancy,48.6936,6.1846,France,FR
Puerto Plata,19.7958,-70.6944,Dominican Republic,DO
Machida,35.5486,139.4467,Japan,JP
Ning’an,44.3429,129.4621,China,CN
Beira,-19.8333,34.85,Mozambique,MZ
Little Rock,34.7256,-92.3576,United States,US
San Cristóbal,7.7714,-72.2261,Venezuela,VE
Zürich,47.3786,8.54,Switzerland,CH
Zhangjiakou Shi Xuanhua Qu,40.5944,115.0243,China,CN
Sunch’ŏn,39.4167,125.9333,"Korea, North",KP
Diadema,-23.6858,-46.6228,Brazil,BR
Guangming,45.3357,122.7765,China,CN
Sāngli,16.8667,74.5667,India,IN
Tuticorin,8.7833,78.1333,India,IN
Herāt,34.3738,62.1792,Afghanistan,AF
Kupang,-10.1633,123.5778,Indonesia,ID
Jeju,33.5097,126.5219,"Korea, South",KR
Bandar ‘Abbās,27.2,56.25,Iran,IR
Santos,-23.9608,-46.3339,Brazil,BR
Manizales,5.0661,-75.4847,Colombia,CO
Stavropol,45.05,41.9833,Russia,RU
Katsina,12.9889,7.6008,Nigeria,NG
Yogyakarta,-7.8014,110.3644,Indonesia,ID
Calicut,11.25,75.7667,India,IN
Zanjān,36.6667,48.4833,Iran,IR
Welkom,-27.9831,26.7208,South Africa,ZA
Ulan-Ude,51.8272,107.6064,Russia,RU
Oakland,37.7903,-122.2165,United States,US
Mazār-e Sharīf,36.7,67.1167,Afghanistan,AF
Kāshān,33.9833,51.4333,Iran,IR
Kenitra,34.25,-6.5833,Morocco,MA
Uyo,5.05,7.9333,Nigeria,NG
Maringá,-23.425,-51.9389,Brazil,BR
Khamīs Mushayţ,18.3,42.7333,Saudi Arabia,SA
Masan,35.1833,128.55,"Korea, South",KR
Cusco,-13.5183,-71.9781,Peru,PE
Sevastopol,44.6,33.5333,Ukraine,UA
Mandaluyong City,14.5833,121.0333,Philippines,PH
Porto Velho,-8.7619,-63.9039,Brazil,BR
Florencio Varela,-34.8167,-58.2833,Argentina,AR
Akola,20.7333,77,India,IN
Yan’an Beilu,44.0222,87.2961,China,CN
Agadir,30.4167,-9.5833,Morocco,MA
Mogi das Cruzes,-23.5228,-46.1931,Brazil,BR
Durham,35.9794,-78.9031,United States,US
Likasi,-10.9833,26.7333,Congo (Kinshasa),CD
Buenaventura,3.8772,-77.0267,Colombia,CO
Laval,45.5833,-73.75,Canada,CA
Toyota,35.0833,137.1567,Japan,JP
Winston-Salem,36.1029,-80.2611,United States,US
Uijeongbu,37.7486,127.0389,"Korea, South",KR
Tver,56.8578,35.9219,Russia,RU
Elazığ,38.6667,39.2167,Turkey,TR
Akure,7.25,5.195,Nigeria,NG
Hpa-An,16.8906,97.6333,Myanmar,MM
Bonita Springs,26.3559,-81.7861,United States,US
Mishan,45.542,131.8666,China,CN
Hailin,44.5735,129.3825,China,CN
Seremban,2.7297,101.9381,Malaysia,MY
Lecheng,25.1307,113.3472,China,CN
Zhengjiatun,43.513,123.5003,China,CN
Luhansk,48.5833,39.3333,Ukraine,UA
Pencheng,29.6792,115.6611,China,CN
Magnitogorsk,53.3833,59.0333,Russia,RU
Takamatsu,34.35,134.05,Japan,JP
Angeles City,15.1472,120.5847,Philippines,PH
El Obeid,13.1833,30.2167,Sudan,SD
Dalai,45.505,124.2863,China,CN
Xingren,25.4352,105.1907,China,CN
Kolwezi,-10.7167,25.4667,Congo (Kinshasa),CD
Wenlan,23.3689,103.3881,China,CN
Indio,33.7346,-116.2346,United States,US
Palm Coast,29.5392,-81.246,United States,US
Arusha,-3.3667,36.6833,Tanzania,TZ
Fenyang,37.2652,111.7793,China,CN
Paju,37.8328,126.8169,"Korea, South",KR
Oujda-Angad,34.69,-1.91,Morocco,MA
Mataram,-8.5833,116.1167,Indonesia,ID
Chattanooga,35.0657,-85.2488,United States,US
Lapu-Lapu City,10.3127,123.9488,Philippines,PH
Jhang City,31.2681,72.3181,Pakistan,PK
Nagqu,31.4766,92.0569,China,CN
Kisumu,-0.1,34.75,Kenya,KE
Jayapura,-2.5333,140.7167,Indonesia,ID
Montes Claros,-16.7322,-43.8636,Brazil,BR
Rio Branco,-9.9781,-67.8117,Brazil,BR
Toyama,36.7,137.22,Japan,JP
Fangting,31.1282,104.1695,China,CN
Spokane,47.6671,-117.433,United States,US
Sochi,43.5853,39.7203,Russia,RU
Bhāgalpur,25.25,87.0167,India,IN
Ivanovo,57,41,Russia,RU
Osogbo,7.7667,4.5667,Nigeria,NG
Imus,14.4297,120.9367,Philippines,PH
Ciudad Obregón,27.4939,-109.9389,Mexico,MX
Türkmenabat,39.1,63.5667,Turkmenistan,TM
Zaria,11.0667,7.7,Nigeria,NG
Namangan,40.9953,71.6725,Uzbekistan,UZ
Bryansk,53.25,34.3667,Russia,RU
Taiping,32.0691,108.0351,China,CN
Maracay,10.2469,-67.5958,Venezuela,VE
Jiexiu,37.0282,111.9103,China,CN
Mbale,1.0806,34.175,Uganda,UG
Taraz,42.8833,71.3667,Kazakhstan,KZ
Asyūţ,27.1869,31.1714,Egypt,EG
Santa Fe,-31.6333,-60.7,Argentina,AR
Campina Grande,-7.2306,-35.8811,Brazil,BR
Nagasaki,32.7833,129.8667,Japan,JP
Szczecin,53.4247,14.5553,Poland,PL
Ghulja,43.9,81.35,China,CN
Syracuse,43.0409,-76.1438,United States,US
Carapicuíba,-23.5228,-46.8358,Brazil,BR
Quilon,8.8853,76.5864,India,IN
Jundiaí,-23.1864,-46.8842,Brazil,BR
Gifu,35.4167,136.7667,Japan,JP
Lancaster,40.0421,-76.3012,United States,US
Eindhoven,51.4408,5.4778,Netherlands,NL
Sīkar,27.6119,75.1397,India,IN
Tumkūr,13.33,77.1,India,IN
Jiangjiafan,31.0304,112.1,China,CN
Dera Ghazi Khan,30.05,70.6333,Pakistan,PK
Arlington,32.6998,-97.125,United States,US
Miyazaki,31.9167,131.4167,Japan,JP
Stockton,37.9765,-121.3109,United States,US
Bhātpāra,22.8667,88.4167,India,IN
Sandakan,5.8388,118.1173,Malaysia,MY
Hejin,35.5914,110.706,China,CN
Thanh Hóa,19.8075,105.7764,Vietnam,VN
Muzaffarnagar,29.4708,77.7033,India,IN
Poughkeepsie,41.6949,-73.921,United States,US
Campos,-21.7523,-41.3304,Brazil,BR
Metz,49.1203,6.1778,France,FR
Nha Trang,12.2495,109.1908,Vietnam,VN
Belgorod,50.6,36.6,Russia,RU
Yola,9.2,12.4833,Nigeria,NG
Lobito,-12.3597,13.5308,Angola,AO
Saurimo,-9.6589,20.3934,Angola,AO
Olinda,-8.0089,-34.855,Brazil,BR
Bologna,44.4939,11.3428,Italy,IT
Ad Dīwānīyah,31.9892,44.9247,Iraq,IQ
Gujrat,32.5736,74.0789,Pakistan,PK
Hancheng,35.4603,110.4292,China,CN
Fuyu,45.1804,124.82,China,CN
Karamay,45.5928,84.8711,China,CN
Kākināda,16.9333,82.2167,India,IN
Augusta,33.3645,-82.0708,United States,US
Bhīlwāra,25.35,74.6333,India,IN
Tieli,46.9804,128.045,China,CN
Cilegon,-6.0027,106.0112,Indonesia,ID
Baicheng,45.6148,122.832,China,CN
Nizāmābād,18.6704,78.1,India,IN
Boise,43.6007,-116.2312,United States,US
Tonalá,20.6167,-103.2333,Mexico,MX
Mwanza,-2.5167,32.9,Tanzania,TZ
Aqtöbe,50.3,57.1667,Kazakhstan,KZ
Oxnard,34.1963,-119.1815,United States,US
Tétouan,35.5667,-5.3667,Morocco,MA
Okazaki,34.95,137.1667,Japan,JP
Cariacica,-20.2639,-40.42,Brazil,BR
Ḩā’il,27.5236,41.7001,Saudi Arabia,SA
Las Palmas,28.1272,-15.4314,Spain,ES
Yidu,30.388,111.4505,China,CN
Lianzhou,24.7868,112.3735,China,CN
Florence,43.7714,11.2542,Italy,IT
Scranton,41.4044,-75.6649,United States,US
Brno,49.1953,16.6083,Czechia,CZ
London,42.9836,-81.2497,Canada,CA
Modesto,37.6374,-121.0028,United States,US
Kissimmee,28.3042,-81.4164,United States,US
Pasto,1.2136,-77.2811,Colombia,CO
Ichinomiya,35.3039,136.8031,Japan,JP
Qazvīn,36.2688,50.0041,Iran,IR
Irapuato,20.6667,-101.35,Mexico,MX
Novi Sad,45.2644,19.8317,Serbia,RS
Shihezi,44.3,86.0333,China,CN
Shache,38.4261,77.25,China,CN
Pānihāti,22.69,88.37,India,IN
Huancayo,-12.0667,-75.2167,Peru,PE
Aurora,39.7087,-104.7273,United States,US
Malabon,14.6625,120.9567,Philippines,PH
Pétion-Ville,18.5098,-72.2856,Haiti,HT
Sintra,38.7974,-9.3904,Portugal,PT
Parbhani,19.2704,76.76,India,IN
Usulután,13.35,-88.45,El Salvador,SV
Youngstown,41.0993,-80.6463,United States,US
Christchurch,-43.5309,172.6365,New Zealand,NZ
Hatay,36.2,36.15,Turkey,TR
Iquitos,-3.7333,-73.25,Peru,PE
Sivas,39.75,37.0167,Turkey,TR
Helixi,30.6267,118.9861,China,CN
A Coruña,43.3713,-8.4188,Spain,ES
Manukau City,-37,174.885,New Zealand,NZ
Stoke-on-Trent,53,-2.1833,United Kingdom,GB
Cumaná,10.45,-64.1667,Venezuela,VE
Vinnytsia,49.2372,28.4672,Ukraine,UA
Rohtak,28.9,76.5667,India,IN
Lātūr,18.4004,76.57,India,IN
Bello,6.3319,-75.5581,Colombia,CO
Sanandaj,35.3097,46.9989,Iran,IR
Nuevo Laredo,27.4861,-99.5069,Mexico,MX
Ambon,-3.705,128.17,Indonesia,ID
Mandaue City,10.3333,123.9333,Philippines,PH
Keelung,25.1283,121.7419,Taiwan,TW
Toyohashi,34.7667,137.3833,Japan,JP
La Florida,-33.55,-70.5667,Chile,CL
Varna,43.2114,27.9111,Bulgaria,BG
Lengshuijiang,27.6858,111.4279,China,CN
Anguo,38.4177,115.3204,China,CN
Rājapālaiyam,9.4204,77.58,India,IN
Rodriguez,14.7167,121.1167,Philippines,PH
Madan,30.3307,48.2797,Iran,IR
Az Zubayr,30.3892,47.7081,Iraq,IQ
Al Qaţīf,26.5196,50.0115,Saudi Arabia,SA
Cuernavaca,18.9186,-99.2342,Mexico,MX
Nicolás Romero,19.5833,-99.3667,Mexico,MX
Huichang,34.9136,112.7852,China,CN
Vitsyebsk,55.1833,30.1667,Belarus,BY
Nagano,36.6486,138.1928,Japan,JP
Bauru,-22.3147,-49.0606,Brazil,BR
Yanjiao,39.9432,116.8036,China,CN
Bochum,51.4833,7.2167,Germany,DE
Anápolis,-16.3269,-48.9528,Brazil,BR
Coventry,52.4081,-1.5106,United Kingdom,GB
Zalantun,48.0033,122.7365,China,CN
Tecámac,19.7131,-98.9683,Mexico,MX
Ciudad General Escobedo,25.7933,-100.1583,Mexico,MX
Wŏnsan,39.1475,127.4461,"Korea, North",KP
Kocaeli,40.7656,29.9406,Turkey,TR
Bengkulu,-3.7956,102.2592,Indonesia,ID
Shuanghejiedao,30.3866,106.7756,China,CN
Surgut,61.25,73.4333,Russia,RU
Bobo-Dioulasso,11.1833,-4.2833,Burkina Faso,BF
Umuahia,5.5333,7.4833,Nigeria,NG
Gedaref,14.0333,35.3833,Sudan,SD
Palu,-0.895,119.8594,Indonesia,ID
Santa Rosa,14.3167,121.1167,Philippines,PH
Pokhara,28.2097,83.9853,Nepal,NP
Mahilyow,53.9089,30.343,Belarus,BY
Wudalianchi,48.6433,126.1408,China,CN
Sungai Petani,5.65,100.48,Malaysia,MY
Nam Định,20.42,106.1683,Vietnam,VN
Sinŭiju,40.1,124.4,"Korea, North",KP
Vitória,-20.3189,-40.3378,Brazil,BR
Hrodna,53.6667,23.8167,Belarus,BY
Vladimir,56.1286,40.4058,Russia,RU
Bilbao,43.2569,-2.9236,Spain,ES
São Vicente,-23.9633,-46.3922,Brazil,BR
Cubal,-13.0333,14.2333,Angola,AO
Yong’an,25.9733,117.3593,China,CN
Itaquaquecetuba,-23.4864,-46.3486,Brazil,BR
Wuppertal,51.2667,7.1833,Germany,DE
Minatitlán,17.9833,-94.55,Mexico,MX
Nizhniy Tagil,57.9167,59.9667,Russia,RU
Ponta Grossa,-25.095,-50.1619,Brazil,BR
Hongzhai,35.0476,104.6394,China,CN
Wakayama,34.2333,135.1667,Japan,JP
Pavlodar,52.3156,76.9564,Kazakhstan,KZ
Gimpo,37.6236,126.7142,"Korea, South",KR
Rahimyar Khan,28.4202,70.2952,Pakistan,PK
Nara,34.6833,135.7833,Japan,JP
Van,38.5019,43.4167,Turkey,TR
Corrientes,-27.4833,-58.8167,Argentina,AR
San Pedro,14.3583,121.0583,Philippines,PH
Neiva,2.9275,-75.2875,Colombia,CO
Arkhangelsk,64.55,40.5333,Russia,RU
Licheng,24.4935,110.3902,China,CN
Koshigaya,35.8911,139.7908,Japan,JP
Cabimas,10.4,-71.4333,Venezuela,VE
Yakeshi,49.2842,120.7283,China,CN
Baguio City,16.4152,120.5956,Philippines,PH
Ahmadnagar,19.0833,74.7333,India,IN
Fayetteville,36.0713,-94.166,United States,US
Canoas,-29.92,-51.18,Brazil,BR
Holguín,20.8872,-76.2631,Cuba,CU
Qoqon,40.5404,70.94,Uzbekistan,UZ
Anaheim,33.839,-117.8572,United States,US
Yingmen,39.83,97.73,China,CN
Piracicaba,-22.725,-47.6489,Brazil,BR
Bydgoszcz,53.1167,18,Poland,PL
Antofagasta,-23.6464,-70.398,Chile,CL
Khorramābād,33.4667,48.35,Iran,IR
Rājahmundry,16.9833,81.7833,India,IN
Chita,52.0333,113.5,Russia,RU
Caruaru,-8.2828,-35.9758,Brazil,BR
Makiivka,48.0556,37.9611,Ukraine,UA
Chitungwiza,-18,31.1,Zimbabwe,ZW
Pensacola,30.4427,-87.1886,United States,US
Victorville,34.5277,-117.3536,United States,US
Tanch’ŏn,40.458,128.911,"Korea, North",KP
Tokorozawa,35.7994,139.4689,Japan,JP
Sumqayıt,40.5917,49.6397,Azerbaijan,AZ
Kūstī,13.17,32.66,Sudan,SD
Al ‘Amārah,31.8416,47.1512,Iraq,IQ
Cuddapah,14.4667,78.8167,India,IN
Simferopol,44.9484,34.1,Ukraine,UA
Plovdiv,42.1433,24.7489,Bulgaria,BG
Tarlac City,15.4802,120.5979,Philippines,PH
Ōtsu,35.0167,135.85,Japan,JP
Pelotas,-31.7719,-52.3428,Brazil,BR
Lancaster,34.6935,-118.1753,United States,US
Greensboro,36.0956,-79.8269,United States,US
Iligan,8.2333,124.25,Philippines,PH
East London,-33.0153,27.9116,South Africa,ZA
Franca,-20.5389,-47.4008,Brazil,BR
Brest,52.0847,23.6569,Belarus,BY
Kaluga,54.5333,36.2667,Russia,RU
Yeosu,34.7368,127.7458,"Korea, South",KR
Corpus Christi,27.726,-97.3755,United States,US
Muzaffarpur,26.12,85.3833,India,IN
Lublin,51.2333,22.5667,Poland,PL
Lianran,24.9211,102.4778,China,CN
Alwar,27.5667,76.6167,India,IN
Baishan,41.9377,126.4179,China,CN
Kawagoe,35.9251,139.4858,Japan,JP
Farg‘ona,40.3864,71.7864,Uzbekistan,UZ
Tamuramachi-moriyama,37.3252,140.4134,Japan,JP
Brahmapur,19.32,84.8,India,IN
Buôn Ma Thuột,12.6667,108.05,Vietnam,VN
Biñan,14.3333,121.0833,Philippines,PH
Semey,50.4111,80.2275,Kazakhstan,KZ
Tarsus,36.9167,34.9,Turkey,TR
Alicante,38.3453,-0.4831,Spain,ES
Randburg,-26.0936,28.0064,South Africa,ZA
Tepic,21.5083,-104.8931,Mexico,MX
Jitpur,27.6666,85.3333,Nepal,NP
Kaesŏng,37.964,126.5644,"Korea, North",KP
Beni,0.5,29.4667,Congo (Kinshasa),CD
Petrolina,-9.3928,-40.5078,Brazil,BR
Chinju,35.1928,128.0847,"Korea, South",KR
Tangdong,25.9755,113.2302,China,CN
Butuan,8.9534,125.5288,Philippines,PH
Reading,51.4542,-0.9731,United Kingdom,GB
Uberaba,-19.7478,-47.9319,Brazil,BR
Belfast,54.5964,-5.93,United Kingdom,GB
Iwaki,37.0333,140.8833,Japan,JP
Blida,36.4722,2.8333,Algeria,DZ
Hangu,39.232,117.777,China,CN
Yingzhong,32.2381,119.8133,China,CN
Viña del Mar,-33.0245,-71.5518,Chile,CL
Bielefeld,52.0167,8.5333,Germany,DE
Cuenca,-2.8974,-79.0045,Ecuador,EC
Fort Wayne,41.0886,-85.1437,United States,US
Lipa City,13.9411,121.1622,Philippines,PH
Wad Medani,14.4,33.51,Sudan,SD
Ribeirão das Neves,-19.7669,-44.0869,Brazil,BR
Kāmārhāti,22.67,88.37,India,IN
Maebashi,36.3833,139.0667,Japan,JP
Thessaloníki,40.6403,22.9356,Greece,GR
Gəncə,40.6828,46.3606,Azerbaijan,AZ
Bilāspur,22.15,82.0167,India,IN
Santa Ana,33.7366,-117.8819,United States,US
Mymensingh,24.7504,90.38,Bangladesh,BD
Al Fayyūm,29.3,30.8333,Egypt,EG
Flint,43.0235,-83.6922,United States,US
Kendari,-3.9675,122.5947,Indonesia,ID
Balıkesir,39.6511,27.8842,Turkey,TR
Az Zaqāzīq,30.5667,31.5,Egypt,EG
Thái Nguyên,21.6,105.85,Vietnam,VN
Smolensk,54.7828,32.0453,Russia,RU
Asahikawa,43.7706,142.365,Japan,JP
Islip,40.7384,-73.1887,United States,US
Wŏnju,37.3417,127.9208,"Korea, South",KR
Dahūk,36.85,42.9833,Iraq,IQ
Batangas,13.75,121.05,Philippines,PH
Mathura,27.4833,77.6833,India,IN
Barishal,22.7,90.3667,Bangladesh,BD
Bamiantong,44.9164,130.5212,China,CN
Patiāla,30.3204,76.385,India,IN
Cainta,14.5667,121.1167,Philippines,PH
Bonn,50.7339,7.0997,Germany,DE
São José dos Pinhais,-25.535,-49.2058,Brazil,BR
Vũng Tàu,10.4042,107.1417,Vietnam,VN
Markham,43.8767,-79.2633,Canada,CA
Saugor,23.8504,78.75,India,IN
Malmö,55.5932,13.0214,Sweden,SE
Roodepoort,-26.1625,27.8725,South Africa,ZA
Gómez Palacio,25.5611,-103.4983,Mexico,MX
Volzhskiy,48.7833,44.7667,Russia,RU
Taourirt,34.41,-2.89,Morocco,MA
Bijāpur,16.8244,75.7154,India,IN
Sukabumi,-6.9197,106.9272,Indonesia,ID
Fayetteville,35.0846,-78.9776,United States,US
Taytay,14.5692,121.1325,Philippines,PH
Ulanhot,46.0726,122.0719,China,CN
Nakuru,-0.2833,36.0667,Kenya,KE
Yunzhong,39.8143,113.0946,China,CN
Al Fallūjah,33.35,43.7833,Iraq,IQ
Kōchi,33.5589,133.5314,Japan,JP
Boa Vista,2.82,-60.6719,Brazil,BR
Gwangmyeongni,37.4772,126.8664,"Korea, South",KR
Bari,41.1253,16.8667,Italy,IT
Pucallpa,-8.3833,-74.55,Peru,PE
Kuching,1.5397,110.3542,Malaysia,MY
Zinder,13.8,8.9833,Niger,NE
Caucaia,-3.7328,-38.6558,Brazil,BR
Gonder,12.6,37.4667,Ethiopia,ET
Jackson,32.3163,-90.2124,United States,US
Mekele,13.4969,39.4769,Ethiopia,ET
Kulti,23.73,86.85,India,IN
Santa Rosa,38.4458,-122.7067,United States,US
Gonaïves,19.4456,-72.6883,Haiti,HT
Lansing,42.7142,-84.5601,United States,US
Naha,26.2122,127.6789,Japan,JP
Binxian,35.0364,108.0764,China,CN
San Juan,18.4037,-66.0636,Puerto Rico,PR
Lexington,38.0423,-84.4587,United States,US
Hotan,37.1012,79.9327,China,CN
Uíge,-7.6167,15.05,Angola,AO
Newcastle,-32.9167,151.75,Australia,AU
Kurgan,55.4408,65.3411,Russia,RU
Kaiyuan,23.7147,103.2585,China,CN
Temara,33.9234,-6.9076,Morocco,MA
Uruapan,19.4208,-102.0628,Mexico,MX
Camagüey,21.3786,-77.9186,Cuba,CU
Ann Arbor,42.2755,-83.7312,United States,US
San Salvador de Jujuy,-24.1856,-65.2994,Argentina,AR
Timişoara,45.7597,21.23,Romania,RO
Córdoba,37.8845,-4.7796,Spain,ES
Al Kūt,32.4907,45.8304,Iraq,IQ
Tapachula,14.9,-92.2667,Mexico,MX
Shāhjānpur,27.8804,79.905,India,IN
Cherepovets,59.1333,37.9167,Russia,RU
San Miguelito,9.05,-79.5,Panama,PA
Menongue,-14.6585,17.691,Angola,AO
Poltava,49.5744,34.5686,Ukraine,UA
Henderson,36.0133,-115.038,United States,US
Maroua,10.5823,14.3275,Cameroon,CM
Kaech’ŏn,39.6986,125.9061,"Korea, North",KP
Asan,36.35,126.9167,"Korea, South",KR
Coatzacoalcos,18.15,-94.4333,Mexico,MX
Huntsville,34.6988,-86.6412,United States,US
Öskemen,49.99,82.6149,Kazakhstan,KZ
Tampico,22.2553,-97.8686,Mexico,MX
Trichūr,10.52,76.21,India,IN
Cluj-Napoca,46.7667,23.6,Romania,RO
General Trias,14.3833,120.8833,Philippines,PH
Cirebon,-6.7167,108.5667,Indonesia,ID
Boaco,12.4722,-85.6586,Nicaragua,NI
Cà Mau,9.1833,105.15,Vietnam,VN
Cabuyao,14.275,121.125,Philippines,PH
Vologda,59.2167,39.9,Russia,RU
Saransk,54.1833,45.1833,Russia,RU
Mobile,30.6783,-88.1162,United States,US
Bor,6.2167,31.55,South Sudan,SS
Münster,51.9625,7.6256,Germany,DE
Barddhamān,23.25,87.85,India,IN
Toshima,35.7333,139.7167,Japan,JP
Karlsruhe,49.0167,8.4,Germany,DE
Kasur,31.1167,74.45,Pakistan,PK
Yakou,33.2937,113.5203,China,CN
Orël,52.9686,36.0694,Russia,RU
Safi,32.2833,-9.2333,Morocco,MA
Shahr-e Qods,35.7214,51.1089,Iran,IR
Vitória da Conquista,-14.8661,-40.8394,Brazil,BR
Ḩamāh,35.1333,36.75,Syria,SY
Guarujá,-23.9936,-46.2564,Brazil,BR
Catania,37.5027,15.0873,Italy,IT
Purnea,25.78,87.47,India,IN
Datang,22.9476,113.9326,China,CN
Fort Collins,40.5478,-105.0656,United States,US
Port Elizabeth,-33.9581,25.6,South Africa,ZA
Alanya,36.5436,31.9997,Turkey,TR
Asheville,35.5704,-82.5536,United States,US
Santa Clarita,34.4175,-118.4964,United States,US
Gorgān,36.83,54.48,Iran,IR
Quy Nhơn,13.7696,109.2314,Vietnam,VN
Sambalpur,21.4704,83.9701,India,IN
Yokkaichi,34.9667,136.6167,Japan,JP
Chalco,19.2647,-98.8975,Mexico,MX
Mannheim,49.4878,8.4661,Germany,DE
Namp’o,38.7333,125.4,"Korea, North",KP
Shahrīār,35.6597,51.0592,Iran,IR
Cobán,15.4833,-90.3667,Guatemala,GT
Kasugai,35.25,136.9667,Japan,JP
Sapele,5.8904,5.68,Nigeria,NG
Blumenau,-26.9189,-49.0658,Brazil,BR
Sariwŏn,38.5039,125.7589,"Korea, North",KP
St. Catharines,43.1833,-79.2333,Canada,CA
Matadi,-5.8167,13.4833,Congo (Kinshasa),CD
Niagara Falls,43.06,-79.1067,Canada,CA
Fīrozābād,27.15,78.3949,India,IN
San Fernando,15.0333,120.6833,Philippines,PH
St. Paul,44.9477,-93.104,United States,US
Vladikavkaz,43.04,44.6775,Russia,RU
Yakutsk,62.0272,129.7319,Russia,RU
Minna,9.6139,6.5569,Nigeria,NG
Hisar,29.1489,75.7367,India,IN
Puerto La Cruz,10.2167,-64.6167,Venezuela,VE
Podolsk,55.4297,37.5444,Russia,RU
Ciudad Victoria,23.7333,-99.1333,Mexico,MX
Ciudad del Este,-25.5167,-54.6167,Paraguay,PY
Vaughan,43.8333,-79.5,Canada,CA
Ōakashichō,34.6431,134.9975,Japan,JP
Pekalongan,-6.8883,109.6753,Indonesia,ID
Adıyaman,37.7644,38.2763,Turkey,TR
Vila Nova de Gaia,41.1333,-8.6167,Portugal,PT
Curepipe,-20.3162,57.5166,Mauritius,MU
Cabanatuan City,15.4833,120.9667,Philippines,PH
Paulista,-7.9408,-34.8728,Brazil,BR
Oaxaca,17.0833,-96.75,Mexico,MX
Armenia,4.5389,-75.6725,Colombia,CO
Akita,39.7197,140.1025,Japan,JP
San Bernardo,-33.6,-70.7167,Chile,CL
Wollongong,-34.4331,150.8831,Australia,AU
Brest,48.39,-4.49,France,FR
Awka,6.2,7.0667,Nigeria,NG
Iksan,35.9439,126.9544,"Korea, South",KR
Taubaté,-23.0333,-45.55,Brazil,BR
Antioch,37.9789,-121.7958,United States,US
Lakeland,28.0556,-81.9545,United States,US
Sóc Trăng,9.6,105.9719,Vietnam,VN
Āwasa,7.05,38.4667,Ethiopia,ET
Mardan,34.1958,72.0447,Pakistan,PK
Popayán,2.4411,-76.6061,Colombia,CO
Praia Grande,-24.0058,-46.4028,Brazil,BR
Qianzhou,28.3185,109.7318,China,CN
Cotabato,7.2167,124.25,Philippines,PH
Valladolid,41.6528,-4.7236,Spain,ES
Mossoró,-5.1878,-37.3439,Brazil,BR
Coatepeque,14.7,-91.8667,Guatemala,GT
Bīdar,17.9229,77.5175,India,IN
Białystok,53.1167,23.1667,Poland,PL
Mérida,8.5833,-71.1333,Venezuela,VE
Murmansk,68.9667,33.0833,Russia,RU
Ar Raqqah,35.95,39.0167,Syria,SY
Afyonkarahisar,38.7581,30.5386,Turkey,TR
Vigo,42.2314,-8.7124,Spain,ES
Jember,-8.1727,113.6873,Indonesia,ID
Bahía Blanca,-38.7167,-62.2667,Argentina,AR
İskenderun,36.5804,36.17,Turkey,TR
Al Mubarraz,25.41,49.5808,Saudi Arabia,SA
Petrópolis,-22.505,-43.1789,Brazil,BR
Al Kharj,24.1556,47.312,Saudi Arabia,SA
Rāmpur,28.8154,79.025,India,IN
Najrān,17.4917,44.1322,Saudi Arabia,SA
Chernihiv,51.4939,31.2947,Ukraine,UA
Yangsan,35.3386,129.0386,"Korea, South",KR
Comilla,23.45,91.2,Bangladesh,BD
Oyster Bay,40.7845,-73.5139,United States,US
Valparaíso,-33.0458,-71.6197,Chile,CL
Augsburg,48.3717,10.8983,Germany,DE
Mbeya,-8.9,33.45,Tanzania,TZ
Limeira,-22.5647,-47.4017,Brazil,BR
Rangpur,25.75,89.25,Bangladesh,BD
Shiliguri,26.72,88.42,India,IN
Aksaray,38.3686,34.0297,Turkey,TR
Navotas,14.6667,120.9417,Philippines,PH
Çorum,40.5489,34.9533,Turkey,TR
Bāli,22.65,88.34,India,IN
Ismailia,30.5833,32.2667,Egypt,EG
Vila Teixeira da Silva,-12.1958,15.8556,Angola,AO
Pānīpat,29.4004,76.97,India,IN
Delmas,18.55,-72.3,Haiti,HT
Batna,35.55,6.1667,Algeria,DZ
Kunp’o,37.3675,126.9469,"Korea, South",KR
Tambov,52.7167,41.4333,Russia,RU
Iaşi,47.1622,27.5889,Romania,RO
Thiès,14.7833,-16.9167,Senegal,SN
Makurdi,7.73,8.53,Nigeria,NG
Kherson,46.6333,32.6,Ukraine,UA
Groznyy,43.3125,45.6986,Russia,RU
Hong’an,47.21,123.61,China,CN
Bafoussam,5.4667,10.4167,Cameroon,CM
Resistencia,-27.4514,-58.9867,Argentina,AR
Braşov,45.65,25.6,Romania,RO
Kassel,51.3166,9.4912,Germany,DE
Juliaca,-15.4908,-70.1269,Peru,PE
Karīmnagar,18.4333,79.15,India,IN
Morioka,39.6833,141.15,Japan,JP
Sétif,36.19,5.41,Algeria,DZ
Trenton,40.2236,-74.7641,United States,US
Kaunas,54.9,23.9333,Lithuania,LT
Mulhouse,47.75,7.34,France,FR
Sekondi,4.9433,-1.704,Ghana,GH
Lincoln,40.809,-96.6788,United States,US
Bhuj,23.2504,69.81,India,IN
Ichalkaranji,16.7,74.47,India,IN
Tirupati,13.65,79.42,India,IN
Springfield,37.1943,-93.2916,United States,US
Anchorage,61.1508,-149.1091,United States,US
Punto Fijo,11.7167,-70.1833,Venezuela,VE
Sincelejo,9.2994,-75.3958,Colombia,CO
Plano,33.0502,-96.7487,United States,US
Irvine,33.6772,-117.7738,United States,US
Camaçari,-12.6978,-38.3239,Brazil,BR
Orléans,47.9025,1.909,France,FR
Binangonan,14.4514,121.1919,Philippines,PH
Suzano,-23.5428,-46.3108,Brazil,BR
Hospet,15.2667,76.4,India,IN
Ostrava,49.8356,18.2925,Czechia,CZ
Tacna,-18.0556,-70.2483,Peru,PE
Korhogo,9.4578,-5.6294,Côte D’Ivoire,CI
Constanţa,44.1733,28.6383,Romania,RO
Haifa,32.8,34.9833,Israel,IL
Coacalco,19.6333,-99.0931,Mexico,MX
Crato,-7.2342,-39.4094,Brazil,BR
Limoges,45.8353,1.2625,France,FR
Davenport,41.5563,-90.6052,United States,US
Fukushima,37.7608,140.4733,Japan,JP
Barinas,8.615,-70.1985,Venezuela,VE
Coro,11.395,-69.6816,Venezuela,VE
Bago,17.3433,96.4981,Myanmar,MM
Fuquan,26.7039,107.5087,China,CN
Tongchuanshi,35.08,109.03,China,CN
Āīzawl,23.7104,92.72,India,IN
Santa Maria,-29.6839,-53.8069,Brazil,BR
Taboão da Serra,-23.6019,-46.7528,Brazil,BR
Marabá,-5.3689,-49.1178,Brazil,BR
Sannai,24.16,80.83,India,IN
Huozhou,36.5726,111.7176,China,CN
Temuco,-38.7399,-72.5901,Chile,CL
Sterlitamak,53.6333,55.95,Russia,RU
Rockford,42.2597,-89.0641,United States,US
Tegal,-6.8667,109.1333,Indonesia,ID
Ica,-14.0667,-75.7333,Peru,PE
Newark,40.7245,-74.1725,United States,US
Jining,41.03,113.08,China,CN
Chuncheon,37.8747,127.7342,"Korea, South",KR
Malārd,35.6658,50.9767,Iran,IR
Pematangsiantar,2.96,99.06,Indonesia,ID
Long Xuyên,10.3686,105.4234,Vietnam,VN
Petrozavodsk,61.7833,34.35,Russia,RU
South Bend,41.6767,-86.2696,United States,US
Mingaora,34.7717,72.36,Pakistan,PK
San Pedro Carchá,15.4768,-90.312,Guatemala,GT
Bārāsat,22.2333,88.45,India,IN
Shreveport,32.4656,-93.7956,United States,US
Sumbe,-11.2052,13.8417,Angola,AO
Việt Trì,21.3136,105.3947,Vietnam,VN
Cherkasy,49.4444,32.0597,Ukraine,UA
Caála,-12.85,15.55,Angola,AO
Wiesbaden,50.0825,8.24,Germany,DE
Kostroma,57.7667,40.9333,Russia,RU
Round Lake Beach,42.379,-88.0811,United States,US
Gyeongsan,35.8167,128.7333,"Korea, South",KR
Governador Valadares,-18.8508,-41.9489,Brazil,BR
Katowice,50.25,19,Poland,PL
Shaowu,27.3417,117.4869,China,CN
Sfax,34.74,10.76,Tunisia,TN
Nizhnevartovsk,60.9389,76.595,Russia,RU
Linxia Chengguanzhen,35.6,103.2167,China,CN
Pachuca,20.1,-98.75,Mexico,MX
Juazeiro do Norte,-7.2128,-39.315,Brazil,BR
Dire Dawa,9.5833,41.8667,Ethiopia,ET
Khmelnytskyi,49.42,27,Ukraine,UA
Owo,7.1962,5.5868,Nigeria,NG
San Cristóbal,18.4167,-70.1333,Dominican Republic,DO
Savannah,32.0281,-81.1784,United States,US
Posadas,-27.3667,-55.8969,Argentina,AR
Gatineau,45.4833,-75.65,Canada,CA
Windsor,42.2833,-83,Canada,CA
Myrtle Beach,33.7096,-78.8843,United States,US
Mbandaka,0.0486,18.2603,Congo (Kinshasa),CD
Tehuacán,18.4617,-97.3928,Mexico,MX
La Guaira,10.6,-66.9331,Venezuela,VE
Kunsan,35.9786,126.7114,"Korea, South",KR
Chula Vista,32.6281,-117.0145,United States,US
Ratlām,23.3167,75.0667,India,IN
Yeosu,34.7607,127.6622,"Korea, South",KR
Crato,-7.4639,-63.04,Brazil,BR
Derby,52.9167,-1.4667,United Kingdom,GB
Tsu,34.7186,136.5056,Japan,JP
Kafr ad Dawwār,31.1417,30.1272,Egypt,EG
Eugene,44.0563,-123.1173,United States,US
Gijón,43.5333,-5.7,Spain,ES
Bijiao,22.9311,113.2018,China,CN
Chiayi,23.48,120.4497,Taiwan,TW
Palmas,-10.2128,-48.3603,Brazil,BR
Craiova,44.3333,23.8167,Romania,RO
Sorong,-0.8667,131.25,Indonesia,ID
Majene,-3.5336,118.966,Indonesia,ID
Bukhara,39.7747,64.4286,Uzbekistan,UZ
Aomori,40.8222,140.7475,Japan,JP
Thái Bình,20.4461,106.3422,Vietnam,VN
Minato,35.6581,139.7514,Japan,JP
Binjai,3.6,98.4853,Indonesia,ID
Fuchū,35.6689,139.4778,Japan,JP
Oral,51.2333,51.3667,Kazakhstan,KZ
Brāhmanbāria,23.9667,91.1,Bangladesh,BD
Sartā,36.5504,53.1,Iran,IR
Imphāl,24.82,93.95,India,IN
Plymouth,50.3714,-4.1422,United Kingdom,GB
Santo Domingo de los Colorados,-0.2542,-79.1719,Ecuador,EC
Novorossiysk,44.7167,37.7667,Russia,RU
Santa Ana,13.9833,-89.5333,El Salvador,SV
Zhytomyr,50.2544,28.6578,Ukraine,UA
Villa Altagracia,18.67,-70.17,Dominican Republic,DO
Gombe,10.2904,11.17,Nigeria,NG
Mito,36.3667,140.4667,Japan,JP
Espoo,60.21,24.66,Finland,FI
Drug,21.19,81.28,India,IN
Floridablanca,7.0697,-73.0978,Colombia,CO
Bamenda,5.9333,10.1667,Cameroon,CM
Handwāra,34.4,74.28,India,IN
Lucena,13.9333,121.6167,Philippines,PH
Canton,40.8075,-81.3677,United States,US
Yoshkar-Ola,56.6328,47.8958,Russia,RU
Parnamirim,-5.9158,-35.2628,Brazil,BR
Nalchik,43.4833,43.6167,Russia,RU
Ichihara,35.4981,140.1156,Japan,JP
Aswān,24.0889,32.8997,Egypt,EG
Salamanca,20.5703,-101.1972,Mexico,MX
İnegöl,40.0806,29.5097,Turkey,TR
Chernivtsi,48.2908,25.9344,Ukraine,UA
Sumaré,-22.8219,-47.2669,Brazil,BR
Lubbock,33.5659,-101.8878,United States,US
Yanbu‘,24.0943,38.0493,Saudi Arabia,SA
Sumy,50.9068,34.7992,Ukraine,UA
Tshikapa,-6.4167,20.8,Congo (Kinshasa),CD
Anantapur,14.6833,77.6,India,IN
San Pablo,14.07,121.325,Philippines,PH
Reading,40.34,-75.9267,United States,US
Winter Haven,28.0118,-81.7017,United States,US
Ipatinga,-19.4678,-42.5369,Brazil,BR
Myeik,12.4394,98.6003,Myanmar,MM
Kütahya,39.4242,29.9833,Turkey,TR
Salem,44.9231,-123.0246,United States,US
Djelfa,34.6667,3.25,Algeria,DZ
Suncheon,34.9506,127.4875,"Korea, South",KR
Graz,47.0749,15.4409,Austria,AT
St. Petersburg,27.7931,-82.6652,United States,US
Engels,51.4667,46.1167,Russia,RU
Kindu,-2.95,25.9167,Congo (Kinshasa),CD
Oruro,-17.9667,-67.1167,Bolivia,BO
Dezfūl,32.3878,48.4033,Iran,IR
Osmaniye,37.075,36.25,Turkey,TR
Lafayette,30.2084,-92.0323,United States,US
Kyŏngju,35.85,129.2167,"Korea, South",KR
Dumai,1.6667,101.45,Indonesia,ID
Gent,51.0536,3.7253,Belgium,BE
San Lorenzo,-25.3431,-57.5094,Paraguay,PY
Geelong,-38.15,144.35,Australia,AU
Çorlu,41.1597,27.8028,Turkey,TR
Nawabshah,26.2442,68.41,Pakistan,PK
Gelsenkirchen,51.5167,7.1,Germany,DE
Bordeaux,44.84,-0.58,France,FR
Mönchengladbach,51.2,6.4333,Germany,DE
Volta Redonda,-22.5231,-44.1042,Brazil,BR
Matala,-14.7306,15.0367,Angola,AO
Annaba,36.9,7.7667,Algeria,DZ
Barueri,-23.5111,-46.8764,Brazil,BR
Laredo,27.5629,-99.4875,United States,US
Nonthaburi,13.8667,100.5167,Thailand,TH
Jersey City,40.7161,-74.0682,United States,US
Venice,45.4397,12.3319,Italy,IT
Quảng Ngãi,15.1206,108.7922,Vietnam,VN
Concord,35.3933,-80.6366,United States,US
Damanhūr,31.05,30.4667,Egypt,EG
Ciudad Benito Juárez,25.65,-100.0833,Mexico,MX
Cascavel,-24.9558,-53.4553,Brazil,BR
Hiratsuka,35.3231,139.3422,Japan,JP
Columbus,32.51,-84.8771,United States,US
Chandler,33.2826,-111.8516,United States,US
Sakarya,40.7778,30.4028,Turkey,TR
Tagum,7.4478,125.8078,Philippines,PH
Fukui,36.0641,136.2196,Japan,JP
Sōka,35.8256,139.8056,Japan,JP
Kunduz,36.728,68.8725,Afghanistan,AF
Ciudad Santa Catarina,25.6833,-100.45,Mexico,MX
Los Mochis,25.7835,-108.9937,Mexico,MX
Imperatriz,-5.5258,-47.4758,Brazil,BR
Texcoco,19.52,-98.88,Mexico,MX
Santa Maria,14.8183,120.9563,Philippines,PH
Mişrātah,32.3778,15.0901,Libya,LY
Isparta,37.7667,30.55,Turkey,TR
Foz do Iguaçu,-25.54,-54.5875,Brazil,BR
Verona,45.4386,10.9928,Italy,IT
Huayin,34.5664,110.0866,China,CN
Etāwah,26.7855,79.015,India,IN
McKinney,33.2015,-96.6669,United States,US
Playa del Carmen,20.6275,-87.0811,Mexico,MX
Scottsdale,33.6872,-111.8651,United States,US
Wolverhampton,52.5833,-2.1333,United Kingdom,GB
Killeen,31.0754,-97.7296,United States,US
Bergen,60.3925,5.3233,Norway,NO
Tallahassee,30.4551,-84.2526,United States,US
Horlivka,48.3336,38.0925,Ukraine,UA
Antsirabe,-19.8667,47.0333,Madagascar,MG
Ondo,7.0904,4.84,Nigeria,NG
San Mateo,14.6969,121.1219,Philippines,PH
Ấp Đa Lợi,11.9304,108.42,Vietnam,VN
Viamão,-30.0808,-51.0228,Brazil,BR
Peoria,40.752,-89.6153,United States,US
Gravataí,-29.9433,-50.9939,Brazil,BR
Kediri,-7.8166,112.0119,Indonesia,ID
Damaturu,11.75,11.9667,Nigeria,NG
Tokushima,34.0667,134.55,Japan,JP
Malolos,14.8433,120.8114,Philippines,PH
La Paz,24.1422,-110.3108,Mexico,MX
Wilmington,34.21,-77.8866,United States,US
Rāichūr,16.2104,77.355,India,IN
Mawlamyine,16.4847,97.6258,Myanmar,MM
Turmero,10.2283,-67.4753,Venezuela,VE
Kuala Terengganu,5.3303,103.1408,Malaysia,MY
Daloa,6.89,-6.45,Côte D’Ivoire,CI
Puerto Princesa,9.75,118.75,Philippines,PH
Moçâmedes,-15.1953,12.1508,Angola,AO
Vitoria-Gasteiz,42.85,-2.6833,Spain,ES
Qarshi,38.8667,65.8,Uzbekistan,UZ
Montgomery,32.3473,-86.2666,United States,US
Gilbert,33.3101,-111.7463,United States,US
Rishon LeẔiyyon,31.95,34.8,Israel,IL
Ongole,15.5,80.05,India,IN
Arua,3.03,30.91,Uganda,UG
Bharatpur,27.2172,77.49,India,IN
Shinozaki,33.95,130.9333,Japan,JP
Goma,-1.6794,29.2336,Congo (Kinshasa),CD
Rạch Giá,10.0125,105.0808,Vietnam,VN
Kanggye,40.9667,126.6,"Korea, North",KP
Taganrog,47.2333,38.9,Russia,RU
Kızıltepe,37.1939,40.5861,Turkey,TR
El Fasher,13.63,25.35,Sudan,SD
Várzea Grande,-15.65,-56.14,Brazil,BR
Las Condes,-33.4167,-70.5833,Chile,CL
Glendale,33.5791,-112.2311,United States,US
Santiago del Estero,-27.7844,-64.2669,Argentina,AR
Hakodate,41.7733,140.7261,Japan,JP
Uşak,38.6833,29.4,Turkey,TR
Begusarai,25.42,86.13,India,IN
North Las Vegas,36.288,-115.0901,United States,US
Sonīpat,28.9958,77.0114,India,IN
Los Teques,10.3411,-67.0406,Venezuela,VE
Mabalacat,15.2167,120.5833,Philippines,PH
Jinshi,29.6334,111.8746,China,CN
Chōfugaoka,35.6506,139.5408,Japan,JP
Osh,40.5333,72.7833,Kyrgyzstan,KG
Iwo,7.63,4.18,Nigeria,NG
Bata,1.865,9.77,Equatorial Guinea,GQ
Komsomol’sk-na-Amure,50.55,137,Russia,RU
Bābol,36.55,52.6833,Iran,IR
Galaţi,45.4233,28.0425,Romania,RO
Al Bayḑā’,32.7628,21.755,Libya,LY
Kurmuk,10.5563,34.2848,Sudan,SD
Manzhouli,49.5881,117.4525,China,CN
Braunschweig,52.2692,10.5211,Germany,DE
Rivne,50.6197,26.2514,Ukraine,UA
Gdynia,54.5189,18.5319,Poland,PL
Soyapango,13.7472,-89.1639,El Salvador,SV
Palangkaraya,-2.21,113.92,Indonesia,ID
Silang,14.2306,120.975,Philippines,PH
Al Minyā,28.0833,30.75,Egypt,EG
Ḩafr al Bāţin,28.4337,45.9601,Saudi Arabia,SA
Chigasaki,35.3339,139.4047,Japan,JP
Būkān,36.5208,46.2117,Iran,IR
Aachen,50.7762,6.0838,Germany,DE
Kiel,54.3233,10.1394,Germany,DE
Sahiwal,30.6706,73.1064,Pakistan,PK
Thủ Dầu Một,11.0042,106.6583,Vietnam,VN
Novo Hamburgo,-29.6778,-51.1308,Brazil,BR
Sibu,2.3,111.8167,Malaysia,MY
Yato,35.4693,139.4616,Japan,JP
Paraná,-31.7444,-60.5175,Argentina,AR
Yamagata,38.25,140.3333,Japan,JP
Oruro,-17.98,-67.13,Bolivia,BO
Tsukuba-kenkyūgakuen-toshi,36.0333,140.0667,Japan,JP
Merlo,-34.6653,-58.7275,Argentina,AR
Magé,-22.6528,-43.0408,Brazil,BR
Syktyvkar,61.6667,50.8167,Russia,RU
Khimki,55.8892,37.445,Russia,RU
Birāṭnagar,26.4833,87.2833,Nepal,NP
Colombo,-25.2919,-49.2239,Brazil,BR
Chemnitz,50.8333,12.9167,Germany,DE
Saskatoon,52.1333,-106.6833,Canada,CA
Colón,9.3598,-79.9004,Panama,PA
Itagüí,6.1726,-75.6096,Colombia,CO
Abertawe,51.6167,-3.95,United Kingdom,GB
Jessore,23.1704,89.2,Bangladesh,BD
Beichengqu,40.4348,113.1565,China,CN
Tuy Hòa,13.0869,109.3086,Vietnam,VN
Shrīrāmpur,22.75,88.34,India,IN
Chesapeake,36.6778,-76.3024,United States,US
Fuji,35.1614,138.6764,Japan,JP
Hāpur,28.7437,77.7628,India,IN
Bahir Dar,11.585,37.39,Ethiopia,ET
Manisa,38.6131,27.4258,Turkey,TR
Tanga,-5.0667,39.1,Tanzania,TZ
Sabzevār,36.2167,57.6667,Iran,IR
Rāmgundam,18.8,79.45,India,IN
Porto,41.1495,-8.6108,Portugal,PT
Baruta,10.4335,-66.8754,Venezuela,VE
Tacloban,11.2444,125.0039,Philippines,PH
Itaboraí,-22.7475,-42.8558,Brazil,BR
Myitkyina,25.3867,97.3936,Myanmar,MM
Barnstable,41.6722,-70.3599,United States,US
Haeju,38.0333,125.7167,"Korea, North",KP
Petaẖ Tiqwa,32.0833,34.8833,Israel,IL
Norfolk,36.8945,-76.259,United States,US
González Catán,-34.7708,-58.6464,Argentina,AR
Sete Lagoas,-19.4658,-44.2469,Brazil,BR
Tarapoto,-6.4833,-76.3667,Peru,PE
Zhangping,25.2938,117.4148,China,CN
San Juan del Río,20.3833,-99.9833,Mexico,MX
São Carlos,-22.0178,-47.8908,Brazil,BR
Fremont,37.5265,-121.9852,United States,US
Halle,51.4828,11.9697,Germany,DE
São Leopoldo,-29.76,-51.1469,Brazil,BR
Arakawa,35.7333,139.7833,Japan,JP
Düzce,40.8417,31.1583,Turkey,TR
Anju,39.6167,125.6667,"Korea, North",KP
Divinópolis,-20.1389,-44.8839,Brazil,BR
Aarhus,56.1572,10.2107,Denmark,DK
Kennewick,46.1978,-119.1732,United States,US
Hobart,-42.8806,147.325,Australia,AU
Atushi,39.7114,76.1753,China,CN
Chimoio,-19.1167,33.45,Mozambique,MZ
Limassol,34.675,33.0443,Cyprus,CY
Garland,32.91,-96.6305,United States,US
Magdeburg,52.1278,11.6292,Germany,DE
Irving,32.8584,-96.9702,United States,US
Hachimanchō,40.51,141.54,Japan,JP
Longueuil,45.5333,-73.5167,Canada,CA
Mokpo,34.7936,126.3886,"Korea, South",KR
Košice,48.7167,21.25,Slovakia,SK
‘Ajmān,25.3994,55.4797,United Arab Emirates,AE
Lille,50.6278,3.0583,France,FR
Banda Aceh,5.55,95.3175,Indonesia,ID
Shenmu,38.827,110.499,China,CN
Le Havre,49.49,0.1,France,FR
Taiping,4.85,100.7333,Malaysia,MY
P’yŏng-dong,39.25,125.85,"Korea, North",KP
Springs,-26.2547,28.4428,South Africa,ZA
Ivano-Frankivsk,48.9228,24.7106,Ukraine,UA
As Sīb,23.6802,58.1825,Oman,OM
Nārāyanganj,23.6167,90.5,Bangladesh,BD
Maradi,13.4916,7.0964,Niger,NE
Wuyishan,27.7562,118.0267,China,CN
Sato,33.1631,129.7177,Japan,JP
Āmol,36.4669,52.3569,Iran,IR
Quilmes,-34.7167,-58.2667,Argentina,AR
Mirpur Khas,25.5269,69.0111,Pakistan,PK
Nizhnekamsk,55.6333,51.8167,Russia,RU
Visalia,36.3276,-119.3269,United States,US
Al Jubayl,27.0046,49.646,Saudi Arabia,SA
Pathein,16.7667,94.7333,Myanmar,MM
Secunderābād,17.45,78.5,India,IN
Neya,34.7661,135.6281,Japan,JP
Chishui,28.5902,105.6946,China,CN
Centurion,-25.8603,28.1894,South Africa,ZA
Atlantic City,39.3797,-74.4527,United States,US
Uluberiya,22.47,88.11,India,IN
Shakhty,47.7,40.2333,Russia,RU
Pākdasht,35.4817,51.6803,Iran,IR
Granada,37.1781,-3.6008,Spain,ES
Abhā,18.2167,42.5,Saudi Arabia,SA
Ibb,13.9759,44.1709,Yemen,YE
Garoua,9.3,13.4,Cameroon,CM
Bole,44.898,82.0726,China,CN
Ganda,-13.0167,14.6333,Angola,AO
Elche,38.2669,-0.6983,Spain,ES
Najafābād,32.6342,51.3667,Iran,IR
Bayamo,20.3817,-76.6428,Cuba,CU
Porbandar,21.6425,69.6047,India,IN
Kamianske,48.5076,34.6132,Ukraine,UA
Borūjerd,33.8972,48.7514,Iran,IR
Paradise,36.0807,-115.1369,United States,US
Singaraja,-8.1152,115.0944,Indonesia,ID
Macaé,-22.3708,-41.7869,Brazil,BR
Miri,4.4147,114.0089,Malaysia,MY
Machala,-3.2667,-79.9667,Ecuador,EC
Longquan,28.0733,119.1277,China,CN
Monclova,26.9103,-101.4222,Mexico,MX
Puducherry,11.93,79.83,India,IN
Olongapo,14.8333,120.2833,Philippines,PH
Messina,38.1936,15.5542,Italy,IT
Kremenchuk,49.0775,33.4239,Ukraine,UA
Nashua,42.7491,-71.491,United States,US
Santarém,-2.4431,-54.7083,Brazil,BR
Badalona,41.4333,2.2333,Spain,ES
Okara,30.81,73.4597,Pakistan,PK
Arlington,38.8786,-77.1011,United States,US
Talisay,10.25,123.8333,Philippines,PH
Hialeah,25.8696,-80.3046,United States,US
Saidpur,25.8004,89,Bangladesh,BD
York,39.9651,-76.7315,United States,US
Saga,33.2667,130.3,Japan,JP
Burnaby,49.2667,-122.9667,Canada,CA
Rancagua,-34.1654,-70.7398,Chile,CL
Dzerzhinsk,56.2333,43.45,Russia,RU
Milton Keynes,52.04,-0.76,United Kingdom,GB
Marília,-22.2139,-49.9458,Brazil,BR
Bratsk,56.1667,101.6167,Russia,RU
Jiayuguan,39.8112,98.2862,China,CN
Indaiatuba,-23.0903,-47.2181,Brazil,BR
Envigado,6.1719,-75.5803,Colombia,CO
Freiburg im Breisgau,47.9947,7.8497,Germany,DE
Eloy Alfaro,-2.1733,-79.8311,Ecuador,EC
Maracanaú,-3.8769,-38.6258,Brazil,BR
Ageoshimo,35.9775,139.5933,Japan,JP
Qarchak,35.4394,51.5689,Iran,IR
Neuquén,-38.9573,-68.0455,Argentina,AR
Ibb,13.9667,44.1667,Yemen,YE
Banfield,-34.75,-58.3833,Argentina,AR
Cabo Frio,-22.8789,-42.0189,Brazil,BR
Singkawang,0.9,108.9833,Indonesia,ID
Orsk,51.2,58.6167,Russia,RU
Vizianagaram,18.1167,83.4167,India,IN
North Hempstead,40.7912,-73.6688,United States,US
Evansville,37.9881,-87.5341,United States,US
Cotia,-23.6039,-46.9189,Brazil,BR
Pāli,25.7725,73.3233,India,IN
Noginsk,64.4833,91.2333,Russia,RU
Kropyvnytskyi,48.5103,32.2667,Ukraine,UA
Częstochowa,50.8096,19.1222,Poland,PL
Rondonópolis,-16.4708,-54.6358,Brazil,BR
Guantánamo,20.1383,-75.2061,Cuba,CU
Krefeld,51.3333,6.5667,Germany,DE
Tanza,14.3944,120.8531,Philippines,PH
Marilao,14.7581,120.9481,Philippines,PH
Guadalupe,22.7528,-102.5078,Mexico,MX
Taitō,35.7126,139.78,Japan,JP
Kolpino,59.73,30.65,Russia,RU
Burgas,42.5,27.4667,Bulgaria,BG
Puerto Vallarta,20.6667,-105.2667,Mexico,MX
Avondale,33.3858,-112.3236,United States,US
Nyala,12.05,24.8833,Sudan,SD
Brownsville,25.998,-97.4565,United States,US
Daşoguz,41.8167,59.9831,Turkmenistan,TM
Türkistan,43.3,68.2436,Kazakhstan,KZ
Probolinggo,-7.75,113.2167,Indonesia,ID
Jacareí,-23.305,-45.9658,Brazil,BR
Gusau,12.1704,6.66,Nigeria,NG
Buenavista,19.6083,-99.1694,Mexico,MX
Quetzaltenango,14.8333,-91.5167,Guatemala,GT
Tarrasa,41.5611,2.0081,Spain,ES
Araraquara,-21.7939,-48.1758,Brazil,BR
Angarsk,52.5667,103.9167,Russia,RU
Sousse,35.8333,10.6333,Tunisia,TN
Nāgercoil,8.17,77.43,India,IN
Heroica Nogales,31.3186,-110.9458,Mexico,MX
Apapa,6.4489,3.3589,Nigeria,NG
Nyanza,-2.3496,29.74,Rwanda,RW
Itapevi,-23.5489,-46.9342,Brazil,BR
Bạc Liêu,9.2833,105.7167,Vietnam,VN
Varāmīn,35.2714,51.6511,Iran,IR
Padangsidempuan,1.3667,99.2667,Indonesia,ID
Karnāl,29.6804,76.97,India,IN
Mubi,10.2686,13.267,Nigeria,NG
Toamasina,-18.1492,49.4023,Madagascar,MG
Campeche,19.85,-90.5306,Mexico,MX
Korolëv,55.9167,37.8167,Russia,RU
Dourados,-22.2208,-54.8058,Brazil,BR
Hunchun,42.8679,130.3585,China,CN
Tampere,61.4981,23.7608,Finland,FI
Minamiōzuma,36.2404,137.97,Japan,JP
Blagoveshchensk,50.2578,127.5364,Russia,RU
Velikiy Novgorod,58.521,31.2758,Russia,RU
Longjin,22.8711,113.0684,China,CN
Ashdod,31.7978,34.6503,Israel,IL
Carlos Manuel de Céspedes,21.5767,-78.2775,Cuba,CU
Niğde,37.9667,34.6792,Turkey,TR
Chapecó,-27.0958,-52.6178,Brazil,BR
Sandton,-26.107,28.0517,South Africa,ZA
Tanjore,10.8,79.15,India,IN
Staryy Oskol,51.2981,37.835,Russia,RU
Itajaí,-26.9078,-48.6619,Brazil,BR
Puri,19.8,85.8167,India,IN
Cartago,9.8667,-83.9167,Costa Rica,CR
Ji’an Shi,41.1231,126.1815,China,CN
Soledad de Graciano Sánchez,22.1833,-100.9333,Mexico,MX
Presidente Prudente,-22.1258,-51.3889,Brazil,BR
José C. Paz,-34.5167,-58.7667,Argentina,AR
Ternopil,49.5667,25.6,Ukraine,UA
Rufisque,14.7167,-17.2667,Senegal,SN
Formosa,-26.1847,-58.1758,Argentina,AR
Sabadell,41.5483,2.1075,Spain,ES
Guéckédou,8.5667,-10.1333,Guinea,GN
Sambhal,28.58,78.55,India,IN
Polokwane,-23.9,29.45,South Africa,ZA
Neyshābūr,36.22,58.82,Iran,IR
Sidon,33.5606,35.3981,Lebanon,LB
Radom,51.4036,21.1567,Poland,PL
Lutsk,50.7478,25.3244,Ukraine,UA
Oviedo,43.36,-5.845,Spain,ES
Gulfport,30.4271,-89.0703,United States,US
Sāveh,35.0211,50.3564,Iran,IR
La Vega,19.2242,-70.5283,Dominican Republic,DO
Appleton,44.2779,-88.3891,United States,US
Khomeynī Shahr,32.7,51.5211,Iran,IR
Juazeiro,-9.4139,-40.5028,Brazil,BR
Itabuna,-14.7858,-39.28,Brazil,BR
Al Khubar,26.3,50.2167,Saudi Arabia,SA
Islington,51.544,-0.1027,United Kingdom,GB
Córdoba,18.8942,-96.9347,Mexico,MX
Ciudad Acuña,29.3242,-100.9317,Mexico,MX
Tuluá,4.0847,-76.1986,Colombia,CO
Mainz,50,8.2667,Germany,DE
Hortolândia,-22.8583,-47.22,Brazil,BR
Bitung,1.4472,125.1978,Indonesia,ID
Naihāti,22.9,88.42,India,IN
Petrel,38.4789,-0.7967,Spain,ES
Damietta,31.4167,31.8214,Egypt,EG
Manta,-0.95,-80.7162,Ecuador,EC
Butembo,0.1251,29.299,Congo (Kinshasa),CD
San Miguel,13.4833,-88.1833,El Salvador,SV
San Pedro de Macorís,18.4572,-69.3061,Dominican Republic,DO
Netanya,32.3328,34.86,Israel,IL
Bremerton,47.5436,-122.7122,United States,US
Alor Setar,6.1167,100.3667,Malaysia,MY
Hickory,35.7425,-81.323,United States,US
Luton,51.8783,-0.4147,United Kingdom,GB
Tacoma,47.2431,-122.4531,United States,US
Laâyoune,27.15,-13.2,Morocco,MA
Aberdeen,57.15,-2.11,United Kingdom,GB
Lübeck,53.8697,10.6864,Germany,DE
Denov,38.2772,67.8872,Uzbekistan,UZ
Maţraḩ,23.6167,58.5667,Oman,OM
Qostanay,53.2144,63.6246,Kazakhstan,KZ
Banjarbaru,-3.4667,114.75,Indonesia,ID
Sa Đéc,10.3105,105.7397,Vietnam,VN
Norwich,52.63,1.297,United Kingdom,GB
Gujiao,37.9069,112.17,China,CN
Cartagena,37.6,-0.9819,Spain,ES
Petropavl,54.8622,69.1408,Kazakhstan,KZ
Marg‘ilon,40.4667,71.7167,Uzbekistan,UZ
Gangneung,37.7556,128.8961,"Korea, South",KR
San Bernardino,34.1417,-117.2946,United States,US
Cúa,10.1667,-66.8833,Venezuela,VE
Meycauayan,14.7333,120.95,Philippines,PH
Vantaa,60.3,25.0333,Finland,FI
As Samāwah,31.3167,45.2833,Iraq,IQ
Ormoc,11.0167,124.6167,Philippines,PH
College Station,30.5852,-96.296,United States,US
Golmud,36.4028,94.9042,China,CN
Kalamazoo,42.2749,-85.5882,United States,US
Regina,50.4547,-104.6067,Canada,CA
Thousand Oaks,34.1914,-118.8755,United States,US
La Victoria,10.2278,-67.3336,Venezuela,VE
Shimla,31.1033,77.1722,India,IN
Mohammedia,33.6833,-7.3833,Morocco,MA
Babruysk,53.15,29.2333,Belarus,BY
Roanoke,37.2785,-79.958,United States,US
Osan,37.145,127.0694,"Korea, South",KR
Geneva,46.2,6.15,Switzerland,CH
Fontana,34.0968,-117.4599,United States,US
Sikasso,11.3167,-5.6667,Mali,ML
Alvorada,-29.99,-51.0839,Brazil,BR
Warnes,-17.5103,-63.1647,Bolivia,BO
Ciudad Madero,22.25,-97.8333,Mexico,MX
Oberhausen,51.4699,6.8514,Germany,DE
El Tigre,8.8858,-64.2611,Venezuela,VE
Jerez de la Frontera,36.6817,-6.1378,Spain,ES
Jalālābād,34.4303,70.4528,Afghanistan,AF
Moreno Valley,33.9244,-117.2045,United States,US
Sidi Bel Abbès,35.2,-0.6333,Algeria,DZ
Limbe,4.0167,9.2167,Cameroon,CM
Kure,34.2492,132.5658,Japan,JP
Tumaco,1.8067,-78.7647,Colombia,CO
Padova,45.4064,11.8778,Italy,IT
Pamplona,42.8167,-1.65,Spain,ES
Arroyo Naranjo,23.0436,-82.3328,Cuba,CU
Ploieşti,44.9386,26.0225,Romania,RO
Criciúma,-28.6775,-49.3697,Brazil,BR
Metepec,19.2511,-99.6047,Mexico,MX
Rio Grande,-32.035,-52.0989,Brazil,BR
Pskov,57.8167,28.3333,Russia,RU
Bila Tserkva,49.7956,30.1167,Ukraine,UA
Chungju,36.9706,127.9322,"Korea, South",KR
Babylon,40.6924,-73.3585,United States,US
Tunja,5.5403,-73.3614,Colombia,CO
Barrancabermeja,7.0675,-73.8472,Colombia,CO
Cachoeiro de Itapemirim,-20.8489,-41.1128,Brazil,BR
Santa Cruz,28.4667,-16.25,Spain,ES
San-Pédro,4.7704,-6.64,Côte D’Ivoire,CI
Bukit Mertajam,5.3631,100.4667,Malaysia,MY
Ijebu-Ode,6.8204,3.92,Nigeria,NG
Cork,51.9,-8.4731,Ireland,IE
Guarenas,10.4739,-66.5383,Venezuela,VE
Taisheng,23.2938,113.353,China,CN
Rostock,54.0833,12.1333,Germany,DE
Dongning,44.0608,131.1187,China,CN
Moratuwa,6.7804,79.88,Sri Lanka,LK
Burutu,5.3533,5.5083,Nigeria,NG
Ich’ŏn,37.2792,127.4425,"Korea, South",KR
Puerto Cabello,10.4667,-68.0167,Venezuela,VE
Beersheba,31.2589,34.7978,Israel,IL
Nasīm Shahr,35.5644,51.1647,Iran,IR
North Port,27.0577,-82.1975,United States,US
Almere,52.3758,5.2256,Netherlands,NL
Lubuklinggau,-3.2967,102.8617,Indonesia,ID
Qinā,26.1667,32.7167,Egypt,EG
Mary,37.6,61.8333,Turkmenistan,TM
Fargo,46.8652,-96.8292,United States,US
Huangyan,28.65,121.25,China,CN
Santa Clara,22.4067,-79.9531,Cuba,CU
Kharagpur,22.3302,87.3237,India,IN
Northcote,-36.7913,174.7758,New Zealand,NZ
Waitakere,-36.849,174.543,New Zealand,NZ
Monywa,22.1083,95.1358,Myanmar,MM
Dindigul,10.35,77.95,India,IN
Morogoro,-6.8242,37.6633,Tanzania,TZ
Green Bay,44.515,-87.9896,United States,US
Cidade de Nacala,-14.55,40.6833,Mozambique,MZ
Talca,-35.4266,-71.6661,Chile,CL
Portoviejo,-1.0544,-80.4544,Ecuador,EC
Spring Valley,36.0987,-115.2619,United States,US
Pingzhen,24.9439,121.2161,Taiwan,TW
Linz,48.3,14.2833,Austria,AT
Trieste,45.6503,13.7703,Italy,IT
Phan Thiết,10.9375,108.1583,Vietnam,VN
Kalemie,-5.9147,29.1939,Congo (Kinshasa),CD
Biskra,34.85,5.7333,Algeria,DZ
Kamirenjaku,35.6833,139.5594,Japan,JP
Ingrāj Bāzār,25,88.15,India,IN
Banī Suwayf,29.0667,31.0833,Egypt,EG
